"codigoestacion","codigosensor","fechaobservacion","valorobservado","nombreestacion","departamento","municipio","zonahidrografica","latitud","longitud","descripcionsensor","unidadmedida"
"2906500077","0240","2019-08-17T16:20:00.000","0","PALMOR - SIERRA NEVADA - AUT","MAGDALENA","CIÉNAGA","BAJO MAGDALENA","10.77175","-74.019138889","Precipitacion","mm"
"0025025030","0240","2017-08-18T11:20:00.000","0","AYAPEL","CÓRDOBA","AYAPEL","BAJO MAGDALENA- CAUCA -SAN JORGE","8.295","-75.165","Precipitacion","mm"
"0023197690","0240","2013-10-07T07:40:00.000","0","PALOGORDO - AUT","SANTANDER","GIRÓN","MEDIO MAGDALENA","6.969166667","-73.13055556","Precipitacion","mm"
"0024025090","0240","2013-08-02T05:20:00.000","0","MOGOTES - AUT","SANTANDER","MOGOTES","SOGAMOSO","6.47","-72.96888889","Precipitacion","mm"
"0021206280","0240","2019-07-08T21:50:00.000","0","ACAPULCO","CUNDINAMARCA","BOJACÁ","ALTO MAGDALENA","4.653833333","-74.33305556","Precipitacion","mm"
"0055015010","0240","2017-03-21T17:40:00.000","0","PIE DE PATO - AUT","CHOCO","ALTO BAUDÓ (PIE DE PATO)","BAUDÓ - DIRECTOS PACIFICO","5.521083333","-76.97316667","Precipitacion","mm"
"0026065502","0240","2017-11-23T18:35:00.000","1.6","TRINIDAD LA  - AUT","CAUCA","PIENDAMÓ","CAUCA","2.750555556","-76.57916667","Precipitacion","mm"
"0022075050","0240","2017-01-16T21:30:00.000","0","PARAMO DE YERBABUENA  - AUT","TOLIMA","RONCESVALLES","SALDAÑA","4.075805556","-75.70083333","Precipitacion","mm"
"0023017040","0240","2015-10-09T16:10:00.000","0","LA ESPERANZA- GUALÍ","TOLIMA","MARIQUITA","MEDIO MAGDALENA","5.206","-74.914","Precipitacion","mm"
"2120000103","0240","2018-11-11T21:10:00.000","0","CERRO NORTE - AUT","BOGOTA D.C.","BOGOTA, D.C","ALTO MAGDALENA","4.733","-74.019","Precipitacion","mm"
"0052025090","0240","2017-12-14T01:30:00.000","0","LA SIERRA - AUT","CAUCA","LA SIERRA","PATÍA","2.193833333","-76.75033333","Precipitacion","mm"
"0023085260","0240","2019-04-21T06:50:00.000","0","LA SELVA - AUT","ANTIOQUIA","RIONEGRO","MEDIO MAGDALENA","6.131916667","-75.41455556","Precipitacion","mm"
"0016035030","0240","2019-03-06T21:30:00.000","0","SARDINATA  - AUT","NORTE DE SANTANDER","SARDINATA","CATATUMBO","8.076666667","-72.80305556","Precipitacion","mm"
"0051025090","0240","2018-11-23T11:10:00.000","0","GRANJA MIRA","NARINO","TUMACO","MIRA","1.55","-78.696","Precipitacion","mm"
"2120000099","0240","2019-07-30T11:58:00.000","0","COLEGIO VEINTIUN ANGELES - AUT","BOGOTA D.C.","BOGOTA, D.C","ALTO MAGDALENA","4.749","-74.081","Precipitacion","mm"
"2120000100","0240","2019-01-05T00:47:00.000","0","COLEGIO ALEMANIA SOLIDARIA - AUT","BOGOTA D.C.","BOGOTA, D.C","ALTO MAGDALENA","4.652","-74.075","Precipitacion","mm"
"0011159010","0240","2008-10-15T06:10:00.000","0","CAPURGANA - TX GPRS","CHOCÓ","ACANDÍ","ATRATO - DARIÉN","8.616","-77.331","Precipitacion","mm"
"0028025120","0240","2018-07-22T02:00:00.000","0","SERRANIA DEL PERIJA  - AUT","CESAR","AGUSTÍN CODAZZI","CESAR","10.02908333","-73.04619444","Precipitacion","mm"
"0024035370","0240","2016-07-11T16:10:00.000","0","EL ESPINO - AUT","BOYACÁ","EL ESPINO","SOGAMOSO","6.506722222","-72.45266667","Precipitacion","mm"
"0013055040","0240","2009-05-04T02:10:00.000","0","INCODER - AUT","CORDOBA","MONTERÍA","SINÚ","8.746944444","-75.91388889","Precipitacion","mm"
"0026185501","0240","2018-09-01T18:20:00.000","0","SONSON  - AUT","ANTIOQUIA","SONSÓN","CAUCA","5.677719444","-75.34780556","Precipitacion","mm"
"0035085070","0240","2018-06-21T03:20:00.000","0","SANTA MARIA - AUT","BOYACÁ","SANTA MARÍA","META","4.84125","-73.25669444","Precipitacion","mm"
"0021015070","0240","2006-11-04T18:00:00.000","0","LOS GUACHAROS  - AUT","HUILA","PALESTINA","ALTO MAGDALENA","1.675833","-76.106841","Precipitacion","mm"
"0023105070","0240","2018-12-31T14:50:00.000","0","MACEO - AUT","ANTIOQUIA","YOLOMBÓ","MEDIO MAGDALENA","6.571638889","-74.79472222","Precipitacion","mm"
"0035085060","0240","2019-04-14T19:10:00.000","0.3","ZETAQUIRA - AUT","BOYACÁ","ZETAQUIRÁ","META","5.294944444","-73.16994444","Precipitacion","mm"
"0021257120","0240","2006-02-27T07:10:00.000","0","PUENTE NEGRO  - AUT","TOLIMA","VILLAHERMOSA","ALTO MAGDALENA","4.940194444","-75.08980556","Precipitacion","mm"
"0025020600","0240","2017-08-20T12:40:00.000","0","HDA SAJONIA - LA MOJANA TX GPRS/GOES","CÓRDOBA","PUEBLO NUEVO","BAJO MAGDALENA- CAUCA -SAN JORGE","8.49","-75.601","Precipitacion","mm"
"0021115180","0240","2014-11-26T00:30:00.000","0","HACIENDA MANILA - AUT","HUILA","BARAYA","ALTO MAGDALENA","3.133055556","-75.08152778","Precipitacion","mm"
"0021206990","0240","2015-09-14T20:30:00.000","0","TIBAITATA - AUT","CUNDINAMARCA","MOSQUERA","ALTO MAGDALENA","4.691416667","-74.209","Precipitacion","mm"
"0021206990","0240","2006-12-27T03:20:00.000","0","TIBAITATA - AUT","CUNDINAMARCA","MOSQUERA","ALTO MAGDALENA","4.691416667","-74.209","Precipitacion","mm"
"0053045040","0240","2018-05-06T21:40:00.000","0","AEROPUERTO GUAPI - AUT","CAUCA","GUAPI","TAPAJE - DAGUA - DIRECTOS","2.574416667","-77.89475","Precipitacion","mm"
"0021255160","0240","2006-03-07T21:20:00.000","0.1","HACIENDA PAJONALES","TOLIMA","AMBALEMA","ALTO MAGDALENA","4.760722222","-74.83425","Precipitacion","mm"
"0021055070","0240","2016-01-23T06:20:00.000","0","INZA - AUT","CAUCA","INZÁ","ALTO MAGDALENA","2.548194444","-76.06394444","Precipitacion","mm"
"0023125160","0240","2010-02-08T07:20:00.000","0","SAN PABLO DE BORBUR  - AUT","BOYACÁ","SAN PABLO DE BORBUR","MEDIO MAGDALENA","5.647027778","-74.07130556","Precipitacion","mm"
"0021137010","0240","2014-05-05T03:20:00.000","0","PURIFICACION","TOLIMA","PURIFICACIÓN","ALTO MAGDALENA","3.85","-74.936","Precipitacion","mm"
"0021206990","0240","2006-07-10T22:50:00.000","0","TIBAITATA - AUT","CUNDINAMARCA","MOSQUERA","ALTO MAGDALENA","4.691416667","-74.209","Precipitacion","mm"
"0021206990","0240","2013-07-23T02:00:00.000","0","TIBAITATA - AUT","CUNDINAMARCA","MOSQUERA","ALTO MAGDALENA","4.691416667","-74.209","Precipitacion","mm"
"0016057030","0240","2010-03-03T01:40:00.000","0","LA CABANA - AUT","NORTE DE SANTANDER","OCAÑA","CATATUMBO","8.197805556","-73.31825","Precipitacion","mm"
"0023197690","0240","2011-04-06T21:20:00.000","0","PALOGORDO - AUT","SANTANDER","GIRÓN","MEDIO MAGDALENA","6.969166667","-73.13055556","Precipitacion","mm"
"0015065180","0240","2017-06-26T05:40:00.000","0","APTO ALMIRANTE PADILLA TX GPRS","LA GUAJIRA","RIOHACHA","CARIBE - GUAJIRA","11.53","-72.918","Precipitacion","mm"
"0023050420","0240","2008-10-05T17:10:00.000","0","ARGELIA ANTIOQUIA - AUT","ANTIOQUIA","ARGELIA","MEDIO MAGDALENA","5.731138889","-75.13852778","Precipitacion","mm"
"0015085050","0240","2018-09-16T06:30:00.000","0","TOROMANA - AUT","LA GUAJIRA","URIBIA","CARIBE - GUAJIRA","12.08352778","-71.21094444","Precipitacion","mm"
"0026015050","0240","2019-06-14T05:40:00.000","0","PALETARA  - AUT","CAUCA","PURACÉ (COCONUCO)","CAUCA","2.191722222","-76.48202778","Precipitacion","mm"
"0052045080","0240","2019-08-14T01:40:00.000","0.1","UNIVERSIDAD DE NARINO  - AUT","NARIÑO","PASTO","PATÍA","1.225111111","-77.28338889","Precipitacion","mm"
"0016025501","0240","2017-06-09T23:05:00.000","0.1","CUCUTILLA  - AUT","NORTE DE SANTANDER","CUCUTILLA","CATATUMBO","7.519455556","-72.79790278","Precipitacion","mm"
"0021206960","0240","2017-10-07T09:00:00.000","0","IDEAM BOGOTA  - AUT","BOGOTA","BOGOTA, D.C","ALTO MAGDALENA","4.6","-74.06666667","Precipitacion","mm"
"0021202170","0240","2016-07-13T16:10:00.000","0","SIERRA MORENA - FOPAE","BOGOTA D.C.","BOGOTA, D.C","ALTO MAGDALENA","4.567","-74.167","Precipitacion","mm"
"0021202180","0240","2011-11-21T13:30:00.000","0","QUIBA - FOPAE","BOGOTA D.C.","BOGOTA, D.C","ALTO MAGDALENA","4.543","-74.156","Precipitacion","mm"
"0011105020","0240","2008-04-14T12:40:00.000","0","CARMEN DARIEN","CHOCÓ","CARMEN DEL DARIÉN  (CURBARADÓ)","ATRATO - DARIÉN","7.154","-76.977","Precipitacion","mm"
"0026135320","0240","2019-06-08T00:40:00.000","0","NEVADO SANTA ISABEL  - AUT","CALDAS","VILLAMARIA","CAUCA","4.802611111","-75.38047222","Precipitacion","mm"
"0035077150","0240","2017-04-10T16:00:00.000","0","PUNTEADERO - CHIVOR","BOYACÁ","CHINAVITA","META","5.191","-73.386","Precipitacion","mm"
"0057025020","0240","2017-03-29T09:00:00.000","0","GORGONA GUAPI","CAUCA","GUAPI","GUAVIARE","2.963","-78.174","Precipitacion","mm"
"0021205502","0240","2018-10-17T08:50:00.000","0","MISIONES  - AUT","CUNDINAMARCA","EL COLEGIO","ALTO MAGDALENA","4.544997222","-74.44055556","Precipitacion","mm"
"0024035410","0240","2009-10-01T08:50:00.000","0","SOGAMOSO - AUT","BOYACÁ","SOGAMOSO","SOGAMOSO","5.753333333","-72.91115278","Precipitacion","mm"
"0021206920","0240","2007-11-11T11:10:00.000","0","VILLA TERESA - AUT","BOGOTA","BOGOTA, D.C","ALTO MAGDALENA","4.35","-74.15","Precipitacion","mm"
"0026145090","0240","2018-06-15T15:00:00.000","0","SANTA EMILIA - AUT","RISARALDA","BELÉN DE UMBRÍA","CAUCA","5.207472222","-75.90294444","Precipitacion","mm"
"0011047040","0240","2013-11-24T01:50:00.000","0","QUIBDO - AUT","CHOCO","QUIBDÓ","ATRATO - DARIÉN","5.697991667","-76.66225833","Precipitacion","mm"
"0023157030","0240","2014-04-14T20:30:00.000","0","BARRANCABERMEJA  - AUT","SANTANDER","BARRANCABERMEJA","MEDIO MAGDALENA","7.060194444","-73.876","Precipitacion","mm"
"0026155250","0240","2018-03-28T11:50:00.000","0","PARAMO CONEJERAS  - AUT","CALDAS","VILLAMARIA","CAUCA","4.829805556","-75.37583333","Precipitacion","mm"
"0024035360","0240","2015-12-05T23:20:00.000","0","SOCHA - AUT","BOYACÁ","SOCHA","SOGAMOSO","5.985416667","-72.99702778","Precipitacion","mm"
"0015015120","0240","2015-06-24T11:50:00.000","0","UNIVERSIDAD TECNOLOGICA  - AUT","MAGDALENA","SANTA MARTA","CARIBE - GUAJIRA","11.22305556","-74.18591667","Precipitacion","mm"
"0021235030","0240","2010-12-04T19:30:00.000","0","UNIVERSIDAD DE CUNDINAMARCA - AUT","CUNDINAMARCA","GIRARDOT","ALTO MAGDALENA","4.305333333","-74.80811111","Precipitacion","mm"
"0026217010","0240","2019-04-30T03:40:00.000","0","LA GALERA - AUT","ANTIOQUIA","SANTA FE DE ANTIOQUIA","CAUCA","6.554972222","-75.86419444","Precipitacion","mm"
"0023087150","0240","2019-06-17T10:20:00.000","0","PUENTE REAL  - AUT","ANTIOQUIA","RIONEGRO","MEDIO MAGDALENA","6.143472222","-75.37994444","Precipitacion","mm"
"0035077080","0240","2019-07-02T14:00:00.000","0","PTE FIERRO - CHIVOR","BOYACÁ","SOMONDOCO","META","4.985","-73.463","Precipitacion","mm"
"0021015040","0240","2018-03-16T10:20:00.000","0","LA PRIMAVERA - AUT","HUILA","SALADOBLANCO","ALTO MAGDALENA","2.021583333","-76.11433333","Precipitacion","mm"
"0021015050","0240","2014-05-03T22:20:00.000","0","PURACE  - AUT","HUILA","SAN AGUSTÍN","ALTO MAGDALENA","1.925916667","-76.42755556","Precipitacion","mm"
"0036015020","0240","2018-04-13T03:10:00.000","0","EL DIAMANTE - AUT","CASANARE","PAZ DE ARIPORO","META","5.816194444","-71.41983333","Precipitacion","mm"
"0021015070","0240","2008-02-20T11:00:00.000","0","LOS GUACHAROS  - AUT","HUILA","PALESTINA","ALTO MAGDALENA","1.675833","-76.106841","Precipitacion","mm"
"0021015070","0240","2005-08-07T22:10:00.000","1.9","LOS GUACHAROS  - AUT","HUILA","PALESTINA","ALTO MAGDALENA","1.675833","-76.106841","Precipitacion","mm"
"0021202230","0240","2014-06-20T12:20:00.000","0","UAN SEDE USME - FOPAE","BOGOTA D.C.","BOGOTA, D.C","ALTO MAGDALENA","4.467","-74.117","Precipitacion","mm"
"0023085260","0240","2012-09-07T01:40:00.000","0","LA SELVA - AUT","ANTIOQUIA","RIONEGRO","MEDIO MAGDALENA","6.131916667","-75.41455556","Precipitacion","mm"
"0014019030","0240","2011-12-06T07:50:00.000","0","CC DIQUE: CIOH","BOLÍVAR","CARTAGENA DE INDIAS","CARIBE - LITORAL","10.391","-75.534","Precipitacion","mm"
"2120000103","0240","2019-08-06T02:38:00.000","0","CERRO NORTE - AUT","BOGOTA D.C.","BOGOTA, D.C","ALTO MAGDALENA","4.733","-74.019","Precipitacion","mm"
"0056125730","0240","2019-01-08T23:40:00.000","0","ESTRELLA DE AGUA - AUT","QUINDÍO","SALENTO","CAUCA","4.62325","-75.430961111","Precipitacion","mm"
"0015075501","0240","2015-01-25T21:11:00.000","0","AEROPUERTO PUERTO BOLIVAR  - AUT","LA GUAJIRA","URIBIA","CARIBE - GUAJIRA","12.22430556","-71.98288889","Precipitacion","mm"
"0024015110","0240","2012-03-11T12:50:00.000","0","LA BOYERA - AUT","CUNDINAMARCA","UBATÉ","SOGAMOSO","5.303805556","-73.85175","Precipitacion","mm"
"0022057010","0240","2006-08-01T07:50:00.000","0","PIEDRAS DE COBRE  - AUT","TOLIMA","SALDAÑA","SALDAÑA","3.908388889","-75.10327778","Precipitacion","mm"
"0025020520","0240","2018-01-07T21:50:00.000","0","BUENAVISTA - LA MOJANA TX GPRS/GOES","CÓRDOBA","BUENAVISTA","BAJO MAGDALENA- CAUCA -SAN JORGE","8.222","-75.468","Precipitacion","mm"
"2120000100","0240","2019-06-18T05:13:00.000","0","COLEGIO ALEMANIA SOLIDARIA - AUT","BOGOTA D.C.","BOGOTA, D.C","ALTO MAGDALENA","4.652","-74.075","Precipitacion","mm"
"0024015509","0240","2016-11-29T08:00:00.000","0","ARCABUCO - ISAGEN - Estacion en Pruebas","BOYACÁ","ARCABUCO","SOGAMOSO","5.762","-73.445","Precipitacion","mm"
"0016055120","0240","2007-05-03T18:10:00.000","0","AGUAS DE LA VIRGEN  - AUT","NORTE DE SANTANDER","OCAÑA","CATATUMBO","8.227694444","-73.3975","Precipitacion","mm"
"0055015010","0240","2019-05-06T05:50:00.000","0.2","PIE DE PATO - AUT","CHOCO","ALTO BAUDÓ (PIE DE PATO)","BAUDÓ - DIRECTOS PACIFICO","5.521083333","-76.97316667","Precipitacion","mm"
"0023127020","0240","2016-12-16T12:10:00.000","0","PTO ARAUJO - RIO CARARE","SANTANDER","CIMITARRA","MEDIO MAGDALENA","6.526","-74.086","Precipitacion","mm"
"0021185090","0240","2015-10-11T04:20:00.000","0","NATAIMA - AUT","TOLIMA","ESPINAL","ALTO MAGDALENA","4.188138889","-74.96047222","Precipitacion","mm"
"0044197020","0240","2018-03-09T21:00:00.000","0","VILLAREAL - RIO CAQUETA","AMAZONAS","LA PEDRERA","CAQUETÁ","-1.31","-69.619","Precipitacion","mm"
"0024025090","0240","2019-03-05T20:20:00.000","0","MOGOTES - AUT","SANTANDER","MOGOTES","SOGAMOSO","6.47","-72.96888889","Precipitacion","mm"
"0021202240","0240","2009-09-17T13:40:00.000","0","UAN SEDE CIRCUNVALAR - FOPAE","BOGOTA D.C.","BOGOTA, D.C","ALTO MAGDALENA","4.633","-74.05","Precipitacion","mm"
"0021206930","0240","2010-06-25T05:00:00.000","0","PARAMO GUERRERO  - AUT","CUNDINAMARCA","ZIPAQUIRÁ","ALTO MAGDALENA","5.086444444","-74.02216667","Precipitacion","mm"
"0026145501","0240","2018-11-03T22:30:00.000","0","APIA  - AUT","RISARALDA","APÍA","CAUCA","5.105055556","-75.93305556","Precipitacion","mm"
"0023065190","0240","2011-02-03T04:20:00.000","0","QUEBRADA NEGRA - AUT","CUNDINAMARCA","QUEBRADANEGRA","MEDIO MAGDALENA","5.137611111","-74.48125","Precipitacion","mm"
"0024035390","0240","2017-08-21T11:20:00.000","0","PARAMO ALMORZADERO  - AUT","SANTANDER","CERRITO","SOGAMOSO","6.945388889","-72.69633333","Precipitacion","mm"
"0024015110","0240","2005-12-16T07:50:00.000","0","LA BOYERA - AUT","CUNDINAMARCA","UBATÉ","SOGAMOSO","5.303805556","-73.85175","Precipitacion","mm"
"0021206780","0240","2012-02-04T17:00:00.000","0","LA INDEPENDENCIA FOPAE Fuera de Servicio","BOGOTA D.C.","BOGOTA, D.C","ALTO MAGDALENA","4.617","-74.317","Precipitacion","mm"
"0026125503","0240","2018-02-02T02:50:00.000","0","LA SIRENA  - AUT","VALLE DEL CAUCA","SEVILLA","CAUCA","4.285","-75.9025","Precipitacion","mm"
"0016035501","0240","2017-09-17T12:55:00.000","0","SARDINATA  - AUT","NORTE DE SANTANDER","SARDINATA","CATATUMBO","8.151169444","-72.86776667","Precipitacion","mm"
"0021195170","0240","2007-01-21T02:40:00.000","0","PAQUILO - AUT","CUNDINAMARCA","CABRERA","ALTO MAGDALENA","3.993611111","-74.39805556","Precipitacion","mm"
"0022075050","0240","2012-05-22T15:40:00.000","0","PARAMO DE YERBABUENA  - AUT","TOLIMA","RONCESVALLES","SALDAÑA","4.075805556","-75.70083333","Precipitacion","mm"
"0021015050","0240","2012-11-27T12:10:00.000","0","PURACE  - AUT","HUILA","SAN AGUSTÍN","ALTO MAGDALENA","1.925916667","-76.42755556","Precipitacion","mm"
"0026125503","0240","2019-06-05T18:30:00.000","0","LA SIRENA  - AUT","VALLE DEL CAUCA","SEVILLA","CAUCA","4.285","-75.9025","Precipitacion","mm"
"0021195190","0240","2017-03-12T17:50:00.000","0","PASCA - AUT","CUNDINAMARCA","PASCA","ALTO MAGDALENA","4.310111111","-74.31175","Precipitacion","mm"
"0026135290","0240","2018-04-27T11:10:00.000","0.5","MARSELLA - AUT","RISARALDA","MARSELLA","CAUCA","4.929583333","-75.73838889","Precipitacion","mm"
"0015065040","0240","2018-12-01T20:40:00.000","0","LA PAULINA - AUT","LA GUAJIRA","FONSECA","CARIBE - GUAJIRA","10.89813889","-72.82847222","Precipitacion","mm"
"0024035360","0240","2016-04-12T03:20:00.000","0","SOCHA - AUT","BOYACÁ","SOCHA","SOGAMOSO","5.985416667","-72.99702778","Precipitacion","mm"
"0021117110","0240","2017-05-09T14:00:00.000","0","MOTILON  - AUT","HUILA","RIVERA","ALTO MAGDALENA","2.805583333","-75.08555556","Precipitacion","mm"
"0035197190","0240","2019-05-07T09:40:00.000","0","PAJARITO - AUT","BOYACÁ","PAJARITO","META","5.283472222","-72.70194444","Precipitacion","mm"
"0021185090","0240","2008-06-02T17:40:00.000","0","NATAIMA - AUT","TOLIMA","ESPINAL","ALTO MAGDALENA","4.188138889","-74.96047222","Precipitacion","mm"
"0035077310","0240","2017-06-13T12:00:00.000","0","BARBOSA TERMALES - CHIVOR","CUNDINAMARCA","TIBIRITA","META","5.053","-73.531","Precipitacion","mm"
"0053115502","0240","2018-11-25T22:25:00.000","0","JULIO FERNANDEZ  - AUT","VALLE DEL CAUCA","RESTREPO","TAPAJE - DAGUA - DIRECTOS","3.809163889","-76.53305556","Precipitacion","mm"
"0026055110","0240","2018-09-14T04:40:00.000","0","LA INDEPENDENCIA - AUT","VALLE DEL CAUCA","JAMUNDÍ","CAUCA","3.185361111","-76.56930556","Precipitacion","mm"
"2120000103","0240","2019-08-02T05:18:00.000","0","CERRO NORTE - AUT","BOGOTA D.C.","BOGOTA, D.C","ALTO MAGDALENA","4.733","-74.019","Precipitacion","mm"
"2120000102","0240","2019-01-05T21:56:00.000","0","COLEGIO CARLOS PIZARRO - AUT","BOGOTA D.C.","BOGOTA, D.C","ALTO MAGDALENA","4.635","-74.205","Precipitacion","mm"
"2401500052","0240","2019-05-25T20:00:00.000","0","PUENTE GUILLERMO - AUT","SANTANDER","PUENTE NACIONAL","SOGAMOSO","5.796416667","-73.726666667","Precipitacion","mm"
"0053115502","0240","2019-07-03T18:40:00.000","0","JULIO FERNANDEZ  - AUT","VALLE DEL CAUCA","RESTREPO","TAPAJE - DAGUA - DIRECTOS","3.809163889","-76.53305556","Precipitacion","mm"
"0021255501","0240","2019-06-26T06:35:00.000","0","LA TRINIDAD  - AUT","TOLIMA","LÍBANO","ALTO MAGDALENA","4.895","-75.04","Precipitacion","mm"
"0026135290","0240","2017-10-02T09:50:00.000","0","MARSELLA - AUT","RISARALDA","MARSELLA","CAUCA","4.929583333","-75.73838889","Precipitacion","mm"
"0013057010","0240","2006-11-26T09:10:00.000","0","NUEVA COLOMBIA","CÓRDOBA","MONTERÍA","SINÚ","8.499","-75.979","Precipitacion","mm"
"0035085060","0240","2018-09-13T21:50:00.000","0","ZETAQUIRA - AUT","BOYACÁ","ZETAQUIRÁ","META","5.294944444","-73.16994444","Precipitacion","mm"
"0021055501","0240","2018-03-08T17:30:00.000","0","SIMON CAMPOS  - AUT","HUILA","LA PLATA","ALTO MAGDALENA","2.345830556","-75.87805556","Precipitacion","mm"
"0022057010","0240","2012-09-20T21:40:00.000","0","PIEDRAS DE COBRE  - AUT","TOLIMA","SALDAÑA","SALDAÑA","3.908388889","-75.10327778","Precipitacion","mm"
"0024035360","0240","2010-04-04T19:10:00.000","0","SOCHA - AUT","BOYACÁ","SOCHA","SOGAMOSO","5.985416667","-72.99702778","Precipitacion","mm"
"0016015130","0240","2010-04-02T14:50:00.000","0","ALCALDIA DE HERRAN  - AUT","NORTE DE SANTANDER","HERRÁN","CATATUMBO","7.506722222","-72.48536111","Precipitacion","mm"
"0023125170","0240","2006-04-18T05:40:00.000","0.2","SAN CAYETANO - AUT","CUNDINAMARCA","SAN CAYETANO","MEDIO MAGDALENA","5.333333333","-74.016666667","Precipitacion","mm"
"0021206930","0240","2017-08-21T05:40:00.000","0","PARAMO GUERRERO  - AUT","CUNDINAMARCA","ZIPAQUIRÁ","ALTO MAGDALENA","5.086444444","-74.02216667","Precipitacion","mm"
"0021165501","0240","2018-12-01T09:40:00.000","0","DOLORES  - AUT","TOLIMA","DOLORES","ALTO MAGDALENA","3.537155556","-74.82982778","Precipitacion","mm"
"0021209200","0240","2019-06-13T12:50:00.000","0","LA CAMPINA - AUT","CUNDINAMARCA","GIRARDOT","ALTO MAGDALENA","4.304888889","-74.793777778","Precipitacion","mm"
"0021255160","0240","2014-07-16T09:20:00.000","0","HACIENDA PAJONALES","TOLIMA","AMBALEMA","ALTO MAGDALENA","4.760722222","-74.83425","Precipitacion","mm"
"0016027300","0240","2015-06-13T03:40:00.000","0","PUENTE CAPIRA - AUT","NORTE DE SANTANDER","CUCUTILLA","CATATUMBO","7.537194444","-72.77113889","Precipitacion","mm"
"0015067020","0240","2012-08-13T18:59:05.000","0","EL CERCADO","LA GUAJIRA","FONSECA","CARIBE - GUAJIRA","10.908","-73.008","Precipitacion","mm"
"0023065503","0240","2018-06-13T14:35:00.000","0","EL MIRADOR  - AUT","CUNDINAMARCA","SASAIMA","MEDIO MAGDALENA","4.95","-74.4","Precipitacion","mm"
"0015065040","0240","2014-06-04T23:10:00.000","0","LA PAULINA - AUT","LA GUAJIRA","FONSECA","CARIBE - GUAJIRA","10.89813889","-72.82847222","Precipitacion","mm"
"0027015320","0240","2019-06-12T06:40:00.000","0","ARAGON - AUT","ANTIOQUIA","SANTA ROSA DE OSOS","NECHÍ","6.781083333","-75.560888889","Precipitacion","mm"
"0026135501","0240","2019-06-25T10:00:00.000","0","EL PILAMO  - AUT","RISARALDA","PEREIRA","CAUCA","4.868333333","-75.79333333","Precipitacion","mm"
"0016015110","0240","2015-10-07T08:00:00.000","0","UNIVERSIDAD FRANCISO DE PAULA SANTANDER - AUT","NORTE DE SANTANDER","CÚCUTA","CATATUMBO","7.898777778","-72.48716667","Precipitacion","mm"
"0013057010","0240","2009-08-09T01:20:00.000","0","NUEVA COLOMBIA","CÓRDOBA","MONTERÍA","SINÚ","8.499","-75.979","Precipitacion","mm"
"0023125501","0240","2018-11-17T00:05:00.000","0","PAUNA  - AUT","BOYACÁ","PAUNA","MEDIO MAGDALENA","5.657130556","-73.96032778","Precipitacion","mm"
"0026237040","0240","2018-04-03T21:50:00.000","0","PTO VALDIVIA","ANTIOQUIA","VALDIVIA","CAUCA","7.287","-75.396","Precipitacion","mm"
"0035071001","0240","2018-10-11T02:30:00.000","0.3","TEATINOS - ESTACION EN PRUEBA","BOYACÁ","BOYACÁ","META","5.439","-73.351","Precipitacion","mm"
"0011135030","0240","2011-05-21T06:00:00.000","0","UNGUIA - AUT","CHOCO","UNGUÍA","ATRATO - DARIÉN","8.036722222","-77.08786111","Precipitacion","mm"
"0021255160","0240","2010-05-23T05:40:00.000","0","HACIENDA PAJONALES","TOLIMA","AMBALEMA","ALTO MAGDALENA","4.760722222","-74.83425","Precipitacion","mm"
"0044015060","0240","2018-12-16T09:30:00.000","0","ACUEDUCTO MOCOA - AUT","PUTUMAYO","MOCOA","CAQUETÁ","1.157333333","-76.65183333","Precipitacion","mm"
"0029047070","0240","2018-04-01T02:30:00.000","0","SAN PEDRITO - TX GPRS","ATLÁNTICO","SUAN","BAJO MAGDALENA","10.268","-74.908","Precipitacion","mm"
"0021237020","0240","2014-03-15T13:00:00.000","0","ARRANCAPLUMAS  - AUT","CUNDINAMARCA","GUADUAS","ALTO MAGDALENA","5.202416667","-74.72761111","Precipitacion","mm"
"0026155505","0240","2018-04-28T03:05:00.000","0","GRANJA LUKER  - AUT","CALDAS","PALESTINA","CAUCA","5.070275","-75.68555278","Precipitacion","mm"
"0013085050","0240","2005-03-15T11:15:00.000","0","LORICA ITA - En Siniestro","CÓRDOBA","LORICA","SINÚ","9.253","-75.844","Precipitacion","mm"
"0017017001","0240","2016-08-19T01:30:00.000","0","JHONNY CAY","SAN ANDRÉS PROVIDENCIA","SAN ANDRÉS","ISLAS CARIBE","12.599","-81.689","Precipitacion","mm"
"0013057010","0240","2016-06-10T17:20:00.000","0","NUEVA COLOMBIA","CÓRDOBA","MONTERÍA","SINÚ","8.499","-75.979","Precipitacion","mm"
"0026155240","0240","2017-06-18T22:20:00.000","0.3","PNN NEVADOS - AUT","CALDAS","VILLAMARIA","CAUCA","4.859444444","-75.38241667","Precipitacion","mm"
"0044015070","0240","2017-08-03T22:10:00.000","0","EL PEPINO - AUT","PUTUMAYO","MOCOA","CAQUETÁ","1.082888889","-76.66711111","Precipitacion","mm"
"0035215030","0240","2017-11-20T23:50:07.000","0","PERENCO: PISBA","BOYACÁ","PISVA","META","5.721","-72.488","Precipitacion","mm"
"0011037030","0240","2012-11-24T12:49:00.000","0","LA LOMA PUEBLO NUEVO - En Siniestro","CHOCÓ","RIO QUITO (PAIMADÓ)","ATRATO - DARIÉN","5.585","-76.753","Precipitacion","mm"
"0023197690","0240","2014-05-11T16:40:00.000","0","PALOGORDO - AUT","SANTANDER","GIRÓN","MEDIO MAGDALENA","6.969166667","-73.13055556","Precipitacion","mm"
"0021206790","0240","2007-05-20T12:50:00.000","0","HACIENDA SANTA ANA - AUT","CUNDINAMARCA","NEMOCÓN","ALTO MAGDALENA","5.0905","-73.88125","Precipitacion","mm"
"0024015503","0240","2019-03-29T05:40:00.000","0","CONFINES  - AUT","SANTANDER","CONFINES","SOGAMOSO","6.373027778","-73.20760833","Precipitacion","mm"
"0015067200","0240","2011-10-11T02:10:00.000","0","EL SILENCIO","LA GUAJIRA","FONSECA","CARIBE - GUAJIRA","10.917","-72.915","Precipitacion","mm"
"0016015110","0240","2006-03-07T20:40:00.000","0","UNIVERSIDAD FRANCISO DE PAULA SANTANDER - AUT","NORTE DE SANTANDER","CÚCUTA","CATATUMBO","7.898777778","-72.48716667","Precipitacion","mm"
"0023207040","0240","2016-12-19T22:20:00.000","0","SAN PABLO RIO MAGDALENA  - AUT","BOLIVAR","SAN PABLO","MEDIO MAGDALENA","7.480333333","-73.91855556","Precipitacion","mm"
"0015085050","0240","2015-12-14T12:40:00.000","0","TOROMANA - AUT","LA GUAJIRA","URIBIA","CARIBE - GUAJIRA","12.08352778","-71.21094444","Precipitacion","mm"
"2120000105","0240","2019-05-28T14:28:00.000","0","EL CODITO - AUT","BOGOTA D.C.","BOGOTA, D.C","ALTO MAGDALENA","4.763","-74.022","Precipitacion","mm"
"0021255170","0240","2013-09-24T21:30:00.000","0","MURILLO - AUT","TOLIMA","MURILLO","ALTO MAGDALENA","4.870555556","-75.17327778","Precipitacion","mm"
"0021235030","0240","2018-10-15T18:30:00.000","0","UNIVERSIDAD DE CUNDINAMARCA - AUT","CUNDINAMARCA","GIRARDOT","ALTO MAGDALENA","4.305333333","-74.80811111","Precipitacion","mm"
"0029047000","0240","2019-07-05T20:30:00.000","0","TEBSA TX GPRS","ATLÁNTICO","SOLEDAD","BAJO MAGDALENA","10.937","-74.76","Precipitacion","mm"
"0016017030","0240","2011-09-09T23:10:00.000","0","LA UCHEMA - En Siniestro","NORTE DE SANTANDER","VILLA DEL ROSARIO","CATATUMBO","7.694","-72.474","Precipitacion","mm"
"0037015501","0240","2019-04-02T12:35:00.000","0","LABATECA  - AUT","NORTE DE SANTANDER","LABATECA","ARAUCA","7.296058333","-72.49772778","Precipitacion","mm"
"2120000105","0240","2018-11-03T06:11:00.000","0","EL CODITO - AUT","BOGOTA D.C.","BOGOTA, D.C","ALTO MAGDALENA","4.763","-74.022","Precipitacion","mm"
"0028025502","0240","2017-05-16T13:50:00.000","0","APTO ALFONSO LOPEZ","CESAR","VALLEDUPAR","CESAR","10.436","-73.248","Precipitacion","mm"
"0056010040","0240","2018-07-22T13:10:00.000","0","PR CHOCO: NUQUI","CHOCÓ","NUQUÍ","PACÍFICO - DIRECTOS","5.708","-77.266","Precipitacion","mm"
"0035075070","0240","2018-03-17T12:20:00.000","0","CHINAVITA - AUT","BOYACÁ","CHINAVITA","META","5.21925","-73.35038889","Precipitacion","mm"
"0026155503","0240","2018-03-20T03:15:00.000","0","PLANALTO  - AUT","CALDAS","MANIZALES","CAUCA","4.989722222","-75.58971944","Precipitacion","mm"
"0013027040","0240","2017-12-27T17:20:00.000","0","CAÑO BARRO - LA MOJANA","CÓRDOBA","AYAPEL","SINÚ","8.236","-74.96","Precipitacion","mm"
"0021206990","0240","2005-05-18T05:20:00.000","0","TIBAITATA - AUT","CUNDINAMARCA","MOSQUERA","ALTO MAGDALENA","4.691416667","-74.209","Precipitacion","mm"
"0026095320","0240","2018-11-13T13:50:00.000","0","EL VINCULO - AUT","VALLE DEL CAUCA","BUGA","CAUCA","3.834805556","-76.30000556","Precipitacion","mm"
"0023197690","0240","2015-01-11T10:30:00.000","0","PALOGORDO - AUT","SANTANDER","GIRÓN","MEDIO MAGDALENA","6.969166667","-73.13055556","Precipitacion","mm"
"0035027520","0240","2017-02-10T21:00:00.000","0","BOCATOMA EAAB - AUT","CUNDINAMARCA","LA CALERA","META","4.661027778","-73.833333333","Precipitacion","mm"
"0053075020","0240","2017-09-25T07:20:00.000","0","EL DIVISO - AUT","CAUCA","ARGELIA","TAPAJE - DAGUA - DIRECTOS","2.311416667","-77.25877778","Precipitacion","mm"
"0011115020","0240","2019-05-12T11:50:00.000","0","CAÑASGORDAS  - AUT","ANTIOQUIA","CAÑASGORDAS","ATRATO - DARIÉN","6.758027778","-76.02966667","Precipitacion","mm"
"0016015502","0240","2017-11-11T08:20:00.000","0","BLONAY  - AUT","NORTE DE SANTANDER","CHINÁCOTA","CATATUMBO","7.564997222","-72.62110833","Precipitacion","mm"
"0011037030","0240","2009-07-30T11:10:00.000","0","LA LOMA PUEBLO NUEVO - En Siniestro","CHOCÓ","RIO QUITO (PAIMADÓ)","ATRATO - DARIÉN","5.585","-76.753","Precipitacion","mm"
"0035217090","0240","2018-05-26T00:10:00.000","0.3","PERENCO: LABRANZA GRANDE","BOYACÁ","LABRANZAGRANDE","META","5.567","-72.584","Precipitacion","mm"
"0044017110","0240","2019-04-18T08:20:00.000","0","ANDAQUI  - AUT","PUTUMAYO","MOCOA","CAQUETÁ","1.050916667","-76.54888889","Precipitacion","mm"
"0013095010","0240","2013-05-02T18:20:00.000","0","COVEÑAS - DIMAR","SUCRE","TOLÚ","CARIBE - LITORAL","9.383","-75.667","Precipitacion","mm"
"0016015130","0240","2017-01-24T17:20:00.000","0","ALCALDIA DE HERRAN  - AUT","NORTE DE SANTANDER","HERRÁN","CATATUMBO","7.506722222","-72.48536111","Precipitacion","mm"
"0015015120","0240","2010-03-13T01:50:00.000","0","UNIVERSIDAD TECNOLOGICA  - AUT","MAGDALENA","SANTA MARTA","CARIBE - GUAJIRA","11.22305556","-74.18591667","Precipitacion","mm"
"0021202200","0240","2015-02-11T05:30:00.000","0","VITELMA","BOGOTA D.C.","BOGOTA, D.C","META","4.575","-74.072","Precipitacion","mm"
"0023065503","0240","2017-10-19T20:45:00.000","0","EL MIRADOR  - AUT","CUNDINAMARCA","SASAIMA","MEDIO MAGDALENA","4.95","-74.4","Precipitacion","mm"
"0021235030","0240","2012-06-26T05:30:00.000","0","UNIVERSIDAD DE CUNDINAMARCA - AUT","CUNDINAMARCA","GIRARDOT","ALTO MAGDALENA","4.305333333","-74.80811111","Precipitacion","mm"
"2401500086","0240","2019-08-09T00:50:00.000","0","TUNJA-U.P.T.C - AUT","BOYACÁ","SAMACÁ","SOGAMOSO","5.4417","-73.5522","Precipitacion","mm"
"0026145505","0240","2018-04-21T10:55:00.000","0","LA FLORESTA  - AUT","CALDAS","BELALCAZAR","CAUCA","4.979219444","-75.83555556","Precipitacion","mm"
"0022057010","0240","2016-09-20T14:20:00.000","0","PIEDRAS DE COBRE  - AUT","TOLIMA","SALDAÑA","SALDAÑA","3.908388889","-75.10327778","Precipitacion","mm"
"0021165501","0240","2019-08-01T04:50:00.000","0","DOLORES  - AUT","TOLIMA","DOLORES","ALTO MAGDALENA","3.537155556","-74.82982778","Precipitacion","mm"
"0026015040","0240","2018-11-19T02:40:00.000","0.3","ARRAYANALES - AUT","CAUCA","POPAYÁN","CAUCA","2.448041111","-76.43574694","Precipitacion","mm"
"0021206950","0240","2018-08-16T06:40:00.000","0","PARAMO GUACHENEQUE  - AUT","CUNDINAMARCA","VILLAPINZÓN","ALTO MAGDALENA","5.236055556","-73.52508333","Precipitacion","mm"
"0024025090","0240","2014-05-17T11:00:00.000","0","MOGOTES - AUT","SANTANDER","MOGOTES","SOGAMOSO","6.47","-72.96888889","Precipitacion","mm"
"0011047040","0240","2010-01-05T19:30:00.000","0","QUIBDO - AUT","CHOCO","QUIBDÓ","ATRATO - DARIÉN","5.697991667","-76.66225833","Precipitacion","mm"
"0026155230","0240","2018-10-01T07:40:00.000","0","EMAS - AUT","CALDAS","MANIZALES","CAUCA","5.08525","-75.50713889","Precipitacion","mm"
"0021201980","0240","2012-03-19T18:35:00.000","0","CERRO GUADALUPE - FOPAE","BOGOTA D.C.","BOGOTA, D.C","ALTO MAGDALENA","4.567","-74.05","Precipitacion","mm"
"0017019010","0240","2018-01-16T14:20:00.000","0","SAN ANDRES","SAN ANDRÉS PROVIDENCIA","SAN ANDRÉS","ISLAS CARIBE","12.556","-81.703","Precipitacion","mm"
"0021167060","0240","2014-02-17T01:20:00.000","0","SAN PABLO TOLIMA  - AUT","TOLIMA","CUNDAY","ALTO MAGDALENA","3.926666667","-74.65694444","Precipitacion","mm"
"0021165502","0240","2017-03-13T08:15:00.000","0","VILLARICA  - AUT","TOLIMA","VILLARRICA","ALTO MAGDALENA","3.955641667","-74.59178611","Precipitacion","mm"
"0024025090","0240","2019-01-09T11:30:00.000","0","MOGOTES - AUT","SANTANDER","MOGOTES","SOGAMOSO","6.47","-72.96888889","Precipitacion","mm"
"0016057030","0240","2011-05-26T11:10:00.000","0","LA CABANA - AUT","NORTE DE SANTANDER","OCAÑA","CATATUMBO","8.197805556","-73.31825","Precipitacion","mm"
"2120000099","0240","2018-12-04T02:10:00.000","0","COLEGIO VEINTIUN ANGELES - AUT","BOGOTA D.C.","BOGOTA, D.C","ALTO MAGDALENA","4.749","-74.081","Precipitacion","mm"
"0026115090","0240","2017-02-17T21:30:00.000","0","LAS BRISAS - AUT","VALLE DEL CAUCA","ANSERMANUEVO","SAN JUÁN","4.775583333","-76.14427778","Precipitacion","mm"
"0052025090","0240","2018-10-08T17:30:00.000","0","LA SIERRA - AUT","CAUCA","LA SIERRA","PATÍA","2.193833333","-76.75033333","Precipitacion","mm"
"0023065501","0240","2018-12-17T14:35:00.000","0","PACHO  - AUT","CUNDINAMARCA","PACHO","MEDIO MAGDALENA","5.129127778","-74.15769722","Precipitacion","mm"
"0016015130","0240","2014-04-06T16:50:00.000","0","ALCALDIA DE HERRAN  - AUT","NORTE DE SANTANDER","HERRÁN","CATATUMBO","7.506722222","-72.48536111","Precipitacion","mm"
"0052055230","0240","2018-10-27T11:30:00.000","0","AEROPUERTO SAN LUIS - AUT","NARIÑO","ALDANA","PATÍA","0.857","-77.678","Precipitacion","mm"
"0021137050","0240","2019-07-09T13:20:00.000","0","RIO ANGOSTURA  - AUT","TOLIMA","NATAGAIMA","ALTO MAGDALENA","3.443194444","-75.11880556","Precipitacion","mm"
"0026155240","0240","2018-01-29T22:50:00.000","0","PNN NEVADOS - AUT","CALDAS","VILLAMARIA","CAUCA","4.859444444","-75.38241667","Precipitacion","mm"
"0026125508","0240","2018-12-07T16:00:00.000","0","LACATALINA  - AUT","RISARALDA","PEREIRA","CAUCA","4.7475","-75.73805556","Precipitacion","mm"
"0035075080","0240","2018-01-12T10:50:00.000","0","PARAMO RABANAL - AUT","BOYACÁ","VENTAQUEMADA","META","5.392388889","-73.56277778","Precipitacion","mm"
"0021215190","0240","2018-08-19T14:00:00.000","0","CAJAMARCA - AUT","TOLIMA","CAJAMARCA","ALTO MAGDALENA","4.435666667","-75.50036111","Precipitacion","mm"
"0012015110","0240","2013-12-12T17:40:00.000","0","CHIGORODO - AUT","ANTIOQUIA","CHIGORODÓ","CARIBE - LITORAL","7.671138889","-76.69405556","Precipitacion","mm"
"0021202250","0240","2011-03-31T05:40:00.000","0","DOÑA JUANA - FOPAE","BOGOTA D.C.","BOGOTA, D.C","ALTO MAGDALENA","4.5","-74.133","Precipitacion","mm"
"0052035501","0240","2019-04-26T10:05:00.000","0","EL SAUCE  - AUT","NARIÑO","LA UNIÓN","PATÍA","1.615555556","-77.10971944","Precipitacion","mm"
"0023087210","0240","2017-02-20T07:30:00.000","0","CANTERAS - AUT","ANTIOQUIA","PUERTO NARE","MEDIO MAGDALENA","6.276083333","-74.67330556","Precipitacion","mm"
"0053115501","0240","2017-08-29T10:45:00.000","0","DAGUA  - AUT","VALLE DEL CAUCA","DAGUA","TAPAJE - DAGUA - DIRECTOS","3.610441667","-76.63785833","Precipitacion","mm"
"0016055120","0240","2019-02-16T11:50:00.000","0","AGUAS DE LA VIRGEN  - AUT","NORTE DE SANTANDER","OCAÑA","CATATUMBO","8.227694444","-73.3975","Precipitacion","mm"
"0035165000","0240","2019-02-12T08:50:00.000","0","EL TUNEL","BOYACÁ","CUÍTIVA","META","5.575","-72.941","Precipitacion","mm"
"0026085170","0240","2019-07-29T21:30:00.000","0","BASE AEREA MARCO FIDEL SUAREZ  - AUT","VALLE DEL CAUCA","CALI","CAUCA","3.4545","-76.49972222","Precipitacion","mm"
"0052055210","0240","2018-12-24T19:20:00.000","0","BOTANA - AUT","NARIÑO","PASTO","PATÍA","1.16","-77.27880556","Precipitacion","mm"
"0023087160","0240","2019-05-14T20:00:00.000","0","CARAMANTA  - AUT","ANTIOQUIA","SAN ROQUE","MEDIO MAGDALENA","6.507333333","-74.86516667","Precipitacion","mm"
"0022057010","0240","2010-07-28T12:30:00.000","0","PIEDRAS DE COBRE  - AUT","TOLIMA","SALDAÑA","SALDAÑA","3.908388889","-75.10327778","Precipitacion","mm"
"0021015040","0240","2006-05-30T15:40:00.000","0","LA PRIMAVERA - AUT","HUILA","SALADOBLANCO","ALTO MAGDALENA","2.021583333","-76.11433333","Precipitacion","mm"
"0021202180","0240","2011-09-04T00:15:00.000","0","QUIBA - FOPAE","BOGOTA D.C.","BOGOTA, D.C","ALTO MAGDALENA","4.543","-74.156","Precipitacion","mm"
"0021202180","0240","2013-03-29T13:45:00.000","0","QUIBA - FOPAE","BOGOTA D.C.","BOGOTA, D.C","ALTO MAGDALENA","4.543","-74.156","Precipitacion","mm"
"2120000102","0240","2019-08-02T09:59:00.000","0","COLEGIO CARLOS PIZARRO - AUT","BOGOTA D.C.","BOGOTA, D.C","ALTO MAGDALENA","4.635","-74.205","Precipitacion","mm"
"0021257120","0240","2007-07-24T18:00:00.000","0","PUENTE NEGRO  - AUT","TOLIMA","VILLAHERMOSA","ALTO MAGDALENA","4.940194444","-75.08980556","Precipitacion","mm"
"0013095010","0240","2008-10-12T10:50:00.000","0","COVEÑAS - DIMAR","SUCRE","TOLÚ","CARIBE - LITORAL","9.383","-75.667","Precipitacion","mm"
"0021215190","0240","2009-10-10T02:20:00.000","0","CAJAMARCA - AUT","TOLIMA","CAJAMARCA","ALTO MAGDALENA","4.435666667","-75.50036111","Precipitacion","mm"
"0029065501","0240","2017-04-10T06:10:00.000","0","CIENAGA,LA  - AUT","MAGDALENA","CIÉNAGA","BAJO MAGDALENA","10.89785833","-74.08156667","Precipitacion","mm"
"0048015010","0240","2017-04-13T19:40:00.000","0","APTO VASQUEZ COBO TX GPRS/GOES","AMAZONAS","LETICIA","<nil>","-4.194","-69.941","Precipitacion","mm"
"0021202210","0240","2013-11-06T04:15:00.000","0","MICAELA - FOPAE","BOGOTA D.C.","BOGOTA, D.C","ALTO MAGDALENA","4.506","-74.086","Precipitacion","mm"
"0021015070","0240","2008-01-26T20:30:00.000","0","LOS GUACHAROS  - AUT","HUILA","PALESTINA","ALTO MAGDALENA","1.675833","-76.106841","Precipitacion","mm"
"0026205501","0240","2017-07-23T20:05:00.000","0","EL ROSARIO  - AUT","ANTIOQUIA","VENECIA","CAUCA","5.625830556","-75.70527778","Precipitacion","mm"
"0021206990","0240","2009-03-27T21:10:00.000","0","TIBAITATA - AUT","CUNDINAMARCA","MOSQUERA","ALTO MAGDALENA","4.691416667","-74.209","Precipitacion","mm"
"0023105070","0240","2015-03-03T09:40:00.000","0","MACEO - AUT","ANTIOQUIA","YOLOMBÓ","MEDIO MAGDALENA","6.571638889","-74.79472222","Precipitacion","mm"
"0016035501","0240","2017-05-25T06:45:00.000","0","SARDINATA  - AUT","NORTE DE SANTANDER","SARDINATA","CATATUMBO","8.151169444","-72.86776667","Precipitacion","mm"
"0021055070","0240","2019-01-24T19:00:00.000","0","INZA - AUT","CAUCA","INZÁ","ALTO MAGDALENA","2.548194444","-76.06394444","Precipitacion","mm"
"0024025090","0240","2017-02-19T18:10:00.000","0","MOGOTES - AUT","SANTANDER","MOGOTES","SOGAMOSO","6.47","-72.96888889","Precipitacion","mm"
"0016027300","0240","2015-08-08T15:20:00.000","0","PUENTE CAPIRA - AUT","NORTE DE SANTANDER","CUCUTILLA","CATATUMBO","7.537194444","-72.77113889","Precipitacion","mm"
"0029045190","0240","2019-02-11T15:00:00.000","0","APTO ERNESTO CORTIZOS TX GPRS","ATLÁNTICO","SOLEDAD","BAJO MAGDALENA","10.918","-74.78","Precipitacion","mm"
"2120000107","0240","2019-04-25T08:21:00.000","0","LA FISCALA - AUT","BOGOTA D.C.","BOGOTA, D.C","ALTO MAGDALENA","4.536","-74.106","Precipitacion","mm"
"0057015010","0240","2018-07-16T04:20:00.000","0","MALPELO - DIMAR","VALLE DEL CAUCA","BUENAVENTURA","BAUDÓ - DIRECTOS PACIFICO","4.096","-81.609","Precipitacion","mm"
"0026055501","0240","2018-05-29T19:35:00.000","0","GINEBRA  - AUT","VALLE DEL CAUCA","GINEBRA","CAUCA","3.738388889","-76.22083056","Precipitacion","mm"
"0015015120","0240","2016-08-04T19:04:00.000","0","UNIVERSIDAD TECNOLOGICA  - AUT","MAGDALENA","SANTA MARTA","CARIBE - GUAJIRA","11.22305556","-74.18591667","Precipitacion","mm"
"0026165502","0240","2018-12-17T03:50:00.000","0","JARDIN  - AUT","ANTIOQUIA","JARDÍN","CAUCA","5.6","-75.84972222","Precipitacion","mm"
"0022057010","0240","2014-07-13T06:30:00.000","0","PIEDRAS DE COBRE  - AUT","TOLIMA","SALDAÑA","SALDAÑA","3.908388889","-75.10327778","Precipitacion","mm"
"0016015110","0240","2019-03-24T06:00:00.000","0","UNIVERSIDAD FRANCISO DE PAULA SANTANDER - AUT","NORTE DE SANTANDER","CÚCUTA","CATATUMBO","7.898777778","-72.48716667","Precipitacion","mm"
"0035237030","0240","2019-01-05T18:20:00.000","0","PERENCO: TRINIDAD PAUTO - PUENTE NONATO","CASANARE","TRINIDAD","META","5.414","-71.668","Precipitacion","mm"
"0015075501","0240","2014-09-14T16:02:00.000","0","AEROPUERTO PUERTO BOLIVAR  - AUT","LA GUAJIRA","URIBIA","CARIBE - GUAJIRA","12.22430556","-71.98288889","Precipitacion","mm"
"0021201980","0240","2014-11-26T06:45:00.000","0","CERRO GUADALUPE - FOPAE","BOGOTA D.C.","BOGOTA, D.C","ALTO MAGDALENA","4.567","-74.05","Precipitacion","mm"
"0021206810","0240","2014-02-24T13:45:00.000","0","SAN BENITO - FOPAE","BOGOTA D.C.","BOGOTA, D.C","ALTO MAGDALENA","4.55","-74.233","Precipitacion","mm"
"0025025280","0240","2017-02-22T12:00:00.000","0","EL TESORO IDEAM  - AUT","SUCRE","MORROA","BAJO MAGDALENA- CAUCA -SAN JORGE","9.357083333","-75.28925","Precipitacion","mm"
"0021015070","0240","2011-12-27T18:00:00.000","0.1","LOS GUACHAROS  - AUT","HUILA","PALESTINA","ALTO MAGDALENA","1.675833","-76.106841","Precipitacion","mm"
"0016025503","0240","2017-08-28T14:30:00.000","0","GRAMALOTE  - AUT","NORTE DE SANTANDER","GRAMALOTE","CATATUMBO","7.923163889","-72.83375556","Precipitacion","mm"
"0023127020","0240","2016-04-27T03:40:00.000","0.1","PTO ARAUJO - RIO CARARE","SANTANDER","CIMITARRA","MEDIO MAGDALENA","6.526","-74.086","Precipitacion","mm"
"0015015120","0240","2014-10-09T08:15:00.000","0","UNIVERSIDAD TECNOLOGICA  - AUT","MAGDALENA","SANTA MARTA","CARIBE - GUAJIRA","11.22305556","-74.18591667","Precipitacion","mm"
"0052025501","0240","2019-05-05T20:05:00.000","0","LA VEGA  - AUT","CAUCA","LA VEGA","PATÍA","2.092941667","-76.81202778","Precipitacion","mm"
"0021206950","0240","2016-11-23T07:00:00.000","0","PARAMO GUACHENEQUE  - AUT","CUNDINAMARCA","VILLAPINZÓN","ALTO MAGDALENA","5.236055556","-73.52508333","Precipitacion","mm"
"0015015120","0240","2014-11-25T16:13:00.000","0","UNIVERSIDAD TECNOLOGICA  - AUT","MAGDALENA","SANTA MARTA","CARIBE - GUAJIRA","11.22305556","-74.18591667","Precipitacion","mm"
"0021206990","0240","2009-08-07T01:00:00.000","0","TIBAITATA - AUT","CUNDINAMARCA","MOSQUERA","ALTO MAGDALENA","4.691416667","-74.209","Precipitacion","mm"
"0026145090","0240","2017-04-18T18:10:00.000","0","SANTA EMILIA - AUT","RISARALDA","BELÉN DE UMBRÍA","CAUCA","5.207472222","-75.90294444","Precipitacion","mm"
"0013095010","0240","2008-04-09T02:00:00.000","0","COVEÑAS - DIMAR","SUCRE","TOLÚ","CARIBE - LITORAL","9.383","-75.667","Precipitacion","mm"
"0022057010","0240","2007-04-20T05:50:00.000","0","PIEDRAS DE COBRE  - AUT","TOLIMA","SALDAÑA","SALDAÑA","3.908388889","-75.10327778","Precipitacion","mm"
"0023195230","0240","2016-09-02T15:10:00.000","0","NEOMUNDO - AUT","SANTANDER","BUCARAMANGA","MEDIO MAGDALENA","7.102611111","-73.10730556","Precipitacion","mm"
"0024055080","0240","2017-06-30T12:30:00.000","0","VIZCAINA LA LIZAMA  - AUT","SANTANDER","BARRANCABERMEJA","SOGAMOSO","6.982972222","-73.70488889","Precipitacion","mm"
"0015075501","0240","2015-04-19T18:46:00.000","0","AEROPUERTO PUERTO BOLIVAR  - AUT","LA GUAJIRA","URIBIA","CARIBE - GUAJIRA","12.22430556","-71.98288889","Precipitacion","mm"
"0035027510","0240","2019-02-04T03:40:00.000","0","CALOSTROS BAJO - AUT","CUNDINAMARCA","LA CALERA","META","4.6645","-73.863083333","Precipitacion","mm"
"0021202250","0240","2011-12-06T14:00:00.000","0","DOÑA JUANA - FOPAE","BOGOTA D.C.","BOGOTA, D.C","ALTO MAGDALENA","4.5","-74.133","Precipitacion","mm"
"0021206790","0240","2016-11-11T16:40:00.000","0","HACIENDA SANTA ANA - AUT","CUNDINAMARCA","NEMOCÓN","ALTO MAGDALENA","5.0905","-73.88125","Precipitacion","mm"
"0015065501","0240","2015-06-25T09:17:00.000","0","LA MINA CERREJON  - AUT","LA GUAJIRA","ALBANIA","CARIBE - GUAJIRA","11.13758333","-72.61594444","Precipitacion","mm"
"0015067210","0240","2012-12-30T14:50:00.000","0","CARACOLI - En Siniestro","LA GUAJIRA","SAN JUAN DEL CESAR","CARIBE - GUAJIRA","10.95","-73.051","Precipitacion","mm"
"0013095010","0240","2016-07-25T14:30:00.000","0","COVEÑAS - DIMAR","SUCRE","TOLÚ","CARIBE - LITORAL","9.383","-75.667","Precipitacion","mm"
"0023085270","0240","2018-10-14T01:10:00.000","0","APTO J.M CORDOVA TX GPRS","ANTIOQUIA","RIONEGRO","MEDIO MAGDALENA","6.169","-75.426","Precipitacion","mm"
"0044035501","0240","2018-08-02T01:20:00.000","0","PAUJIL  - AUT","CAQUETA","EL PAUJIL","CAQUETÁ","1.573819444","-75.3402","Precipitacion","mm"
"0014015020","0240","2019-01-06T02:10:00.000","0","APTO RAFAEL NUÑEZ  TX GPRS","BOLÍVAR","CARTAGENA","CARIBE - LITORAL","10.447","-75.516","Precipitacion","mm"
"0021235030","0240","2010-12-13T22:20:00.000","0","UNIVERSIDAD DE CUNDINAMARCA - AUT","CUNDINAMARCA","GIRARDOT","ALTO MAGDALENA","4.305333333","-74.80811111","Precipitacion","mm"
"0054077210","0240","2018-11-16T22:40:00.000","0","JUANCHACO - AUT","VALLE DEL CAUCA","BUENAVENTURA","SAN JUÁN","3.925147222","-77.34900556","Precipitacion","mm"
"0021237010","0240","2015-10-20T17:00:00.000","0","NARINO - AUT","CUNDINAMARCA","NARIÑO","ALTO MAGDALENA","4.387777778","-74.838375","Precipitacion","mm"
"0011045010","0240","2018-07-03T12:50:00.000","0","PR CHOCO: APTO EL CARANO","CHOCO","QUIBDÓ","ATRATO - DARIÉN","5.691","-76.644","Precipitacion","mm"
"2120000108","0240","2019-07-19T11:54:00.000","0","IDIGER - AUT","BOGOTA D.C.","BOGOTA, D.C","ALTO MAGDALENA","4.675","-74.114","Precipitacion","mm"
"2120000107","0240","2018-10-29T10:00:00.000","0","LA FISCALA - AUT","BOGOTA D.C.","BOGOTA, D.C","ALTO MAGDALENA","4.536","-74.106","Precipitacion","mm"
"0011047040","0240","2012-08-22T06:50:00.000","0","QUIBDO - AUT","CHOCO","QUIBDÓ","ATRATO - DARIÉN","5.697991667","-76.66225833","Precipitacion","mm"
"0024015110","0240","2018-09-28T09:00:00.000","0","LA BOYERA - AUT","CUNDINAMARCA","UBATÉ","SOGAMOSO","5.303805556","-73.85175","Precipitacion","mm"
"0029065501","0240","2019-04-11T12:10:00.000","0","CIENAGA,LA  - AUT","MAGDALENA","CIÉNAGA","BAJO MAGDALENA","10.89785833","-74.08156667","Precipitacion","mm"
"0021195170","0240","2011-08-15T15:40:00.000","0","PAQUILO - AUT","CUNDINAMARCA","CABRERA","ALTO MAGDALENA","3.993611111","-74.39805556","Precipitacion","mm"
"0021202220","0240","2015-06-02T14:35:00.000","0","PARAISO - FOPAE","BOGOTA D.C.","BOGOTA, D.C","ALTO MAGDALENA","4.617","-74.05","Precipitacion","mm"
"0027015290","0240","2018-01-18T08:10:00.000","0","PAJARITO - AUT","ANTIOQUIA","MEDELLÍN","NECHÍ","6.286333333","-75.61279167","Precipitacion","mm"
"0052055501","0240","2017-09-15T10:40:00.000","0","OSPINA PEREZ  - AUT","NARIÑO","CONSACÁ","PATÍA","1.254722222","-77.48777778","Precipitacion","mm"
"0021015040","0240","2014-11-14T13:40:00.000","0","LA PRIMAVERA - AUT","HUILA","SALADOBLANCO","ALTO MAGDALENA","2.021583333","-76.11433333","Precipitacion","mm"
"0021015070","0240","2019-04-22T05:50:00.000","0","LOS GUACHAROS  - AUT","HUILA","PALESTINA","ALTO MAGDALENA","1.675833","-76.106841","Precipitacion","mm"
"0021206790","0240","2016-02-07T14:10:00.000","0","HACIENDA SANTA ANA - AUT","CUNDINAMARCA","NEMOCÓN","ALTO MAGDALENA","5.0905","-73.88125","Precipitacion","mm"
"2120000099","0240","2019-08-25T23:27:00.000","0","COLEGIO VEINTIUN ANGELES - AUT","BOGOTA D.C.","BOGOTA, D.C","ALTO MAGDALENA","4.749","-74.081","Precipitacion","mm"
"0023195502","0240","2017-08-20T11:30:00.000","0","APTO PALONEGRO","SANTANDER","LEBRIJA","MEDIO MAGDALENA","7.121","-73.185","Precipitacion","mm"
"0011027070","0240","2012-08-17T14:30:00.000","0","BORAUDO","CHOCÓ","LLORÓ","ATRATO - DARIÉN","5.515","-76.576","Precipitacion","mm"
"0023195190","0240","2009-05-18T22:40:00.000","0","SAN ANTONIO","SANTANDER","FLORIDABLANCA","MEDIO MAGDALENA","7.1","-73.066","Precipitacion","mm"
"0015015120","0240","2016-07-04T15:55:00.000","0","UNIVERSIDAD TECNOLOGICA  - AUT","MAGDALENA","SANTA MARTA","CARIBE - GUAJIRA","11.22305556","-74.18591667","Precipitacion","mm"
"0023195230","0240","2013-04-21T11:30:00.000","0","NEOMUNDO - AUT","SANTANDER","BUCARAMANGA","MEDIO MAGDALENA","7.102611111","-73.10730556","Precipitacion","mm"
"0026175501","0240","2019-04-10T16:20:00.000","0","RAFAEL ESCOBAR  - AUT","CALDAS","SUPIA","CAUCA","5.45","-75.63305556","Precipitacion","mm"
"0023105070","0240","2019-06-19T23:30:00.000","0","MACEO - AUT","ANTIOQUIA","YOLOMBÓ","MEDIO MAGDALENA","6.571638889","-74.79472222","Precipitacion","mm"
"0026125506","0240","2018-10-20T02:00:00.000","0","EL AGRADO  - AUT","QUINDÍO","MONTENEGRO","CAUCA","4.518333333","-75.7925","Precipitacion","mm"
"0021206940","0240","2011-12-05T13:40:00.000","0","CIUDAD BOLIVAR","BOGOTA D.C.","BOGOTA, D.C","ALTO MAGDALENA","4.577","-74.177","Precipitacion","mm"
"0011027070","0240","2006-08-24T00:10:00.000","0","BORAUDO","CHOCÓ","LLORÓ","ATRATO - DARIÉN","5.515","-76.576","Precipitacion","mm"
"0021137050","0240","2011-10-17T15:29:00.000","0","RIO ANGOSTURA  - AUT","TOLIMA","NATAGAIMA","ALTO MAGDALENA","3.443194444","-75.11880556","Precipitacion","mm"
"0023085270","0240","2015-03-02T21:00:00.000","0","APTO J.M CORDOVA TX GPRS","ANTIOQUIA","RIONEGRO","MEDIO MAGDALENA","6.169","-75.426","Precipitacion","mm"
"0021257120","0240","2006-02-01T13:30:00.000","0","PUENTE NEGRO  - AUT","TOLIMA","VILLAHERMOSA","ALTO MAGDALENA","4.940194444","-75.08980556","Precipitacion","mm"
"0015065501","0240","2018-09-01T11:20:00.000","0","LA MINA CERREJON  - AUT","LA GUAJIRA","ALBANIA","CARIBE - GUAJIRA","11.13758333","-72.61594444","Precipitacion","mm"
"0026225060","0240","2018-12-08T00:50:00.000","0","HACIENDA COTOVE - AUT","ANTIOQUIA","SANTA FE DE ANTIOQUIA","CAUCA","6.533916667","-75.82733333","Precipitacion","mm"
"0016015130","0240","2017-05-25T00:20:00.000","0","ALCALDIA DE HERRAN  - AUT","NORTE DE SANTANDER","HERRÁN","CATATUMBO","7.506722222","-72.48536111","Precipitacion","mm"
"2120700037","0240","2019-03-17T23:01:00.000","0","CASAS FISCALES ESCUELA DE ARTILLERÍA - AUT","BOGOTA D.C.","BOGOTA, D.C","ALTO MAGDALENA","4.556","-74.125","Precipitacion","mm"
"0023067020","0240","2018-11-18T16:50:00.000","0","COLORADOS  - AUT","CUNDINAMARCA","PUERTO SALGAR","MEDIO MAGDALENA","5.4695","-74.59338889","Precipitacion","mm"
"0025025280","0240","2018-06-10T07:00:00.000","0","EL TESORO IDEAM  - AUT","SUCRE","MORROA","BAJO MAGDALENA- CAUCA -SAN JORGE","9.357083333","-75.28925","Precipitacion","mm"
"0026055100","0240","2017-08-01T15:20:00.000","0","FARALLONES - AUT","VALLE DEL CAUCA","CALI","CAUCA","3.416055556","-76.6515","Precipitacion","mm"
"0026115501","0240","2017-06-24T09:45:00.000","0","MANUEL MARIA MALLARINO  - AUT","VALLE DEL CAUCA","TRUJILLO","CAUCA","4.213611111","-76.31497222","Precipitacion","mm"
"0021015040","0240","2013-02-22T17:10:00.000","0","LA PRIMAVERA - AUT","HUILA","SALADOBLANCO","ALTO MAGDALENA","2.021583333","-76.11433333","Precipitacion","mm"
"0023125160","0240","2014-11-07T02:10:00.000","0","SAN PABLO DE BORBUR  - AUT","BOYACÁ","SAN PABLO DE BORBUR","MEDIO MAGDALENA","5.647027778","-74.07130556","Precipitacion","mm"
"0035025110","0240","2017-07-25T02:00:00.000","0","LA LIBERTAD - AUT","META","VILLAVICENCIO","META","4.057361111","-73.46791667","Precipitacion","mm"
"0011117040","0240","2019-03-20T07:20:00.000","0","MUTATA  - AUT","ANTIOQUIA","MUTATÁ","ATRATO - DARIÉN","7.229444444","-76.43805556","Precipitacion","mm"
"0052025501","0240","2018-03-21T01:05:00.000","0","LA VEGA  - AUT","CAUCA","LA VEGA","PATÍA","2.092941667","-76.81202778","Precipitacion","mm"
"0016015120","0240","2019-03-12T01:20:00.000","0.8","UNIVERSIDAD DE PAMPLONA  - AUT","NORTE DE SANTANDER","PAMPLONA","CATATUMBO","7.360944444","-72.66605556","Precipitacion","mm"
"0021195160","0240","2011-02-01T05:00:00.000","0","SUBIA","CUNDINAMARCA","SILVANIA","ALTO MAGDALENA","4.477","-74.384","Precipitacion","mm"
"0023015501","0240","2017-11-02T22:05:00.000","0","FRESNO  - AUT","TOLIMA","FRESNO","MEDIO MAGDALENA","5.155638889","-75.00313611","Precipitacion","mm"
"0021206920","0240","2018-01-11T21:10:00.000","0","VILLA TERESA - AUT","BOGOTA","BOGOTA, D.C","ALTO MAGDALENA","4.35","-74.15","Precipitacion","mm"
"0016015130","0240","2015-05-28T06:40:00.000","0","ALCALDIA DE HERRAN  - AUT","NORTE DE SANTANDER","HERRÁN","CATATUMBO","7.506722222","-72.48536111","Precipitacion","mm"
"0023065502","0240","2018-10-30T15:45:00.000","0","LA PALMA  - AUT","CUNDINAMARCA","LA PALMA","MEDIO MAGDALENA","5.330266667","-74.40156111","Precipitacion","mm"
"0027015501","0240","2017-09-03T20:45:00.000","0","YOLOMBO  - AUT","ANTIOQUIA","YOLOMBÓ","NECHÍ","6.580958333","-75.11487778","Precipitacion","mm"
"0023195200","0240","2019-04-08T02:00:00.000","0","CACHIRI  - AUT","SANTANDER","SURATÁ","MEDIO MAGDALENA","7.473888889","-72.99111111","Precipitacion","mm"
"0021195190","0240","2007-05-03T15:30:00.000","0","PASCA - AUT","CUNDINAMARCA","PASCA","ALTO MAGDALENA","4.310111111","-74.31175","Precipitacion","mm"
"0021115501","0240","2019-06-09T06:40:00.000","0","TELLO  - AUT","HUILA","TELLO","ALTO MAGDALENA","2.960666667","-75.02849722","Precipitacion","mm"
"2120000103","0240","2019-05-24T11:18:00.000","0","CERRO NORTE - AUT","BOGOTA D.C.","BOGOTA, D.C","ALTO MAGDALENA","4.733","-74.019","Precipitacion","mm"
"0015015120","0240","2014-10-22T14:28:00.000","0","UNIVERSIDAD TECNOLOGICA  - AUT","MAGDALENA","SANTA MARTA","CARIBE - GUAJIRA","11.22305556","-74.18591667","Precipitacion","mm"
"2120000100","0240","2019-01-04T08:43:00.000","0","COLEGIO ALEMANIA SOLIDARIA - AUT","BOGOTA D.C.","BOGOTA, D.C","ALTO MAGDALENA","4.652","-74.075","Precipitacion","mm"
"0021215190","0240","2008-08-06T23:00:00.000","0","CAJAMARCA - AUT","TOLIMA","CAJAMARCA","ALTO MAGDALENA","4.435666667","-75.50036111","Precipitacion","mm"
"0022025501","0240","2019-06-09T00:00:00.000","0","ATACO  - AUT","TOLIMA","ATACO","SALDAÑA","3.416666667","-75.63305556","Precipitacion","mm"
"0013095010","0240","2014-06-08T23:00:00.000","0","COVEÑAS - DIMAR","SUCRE","TOLÚ","CARIBE - LITORAL","9.383","-75.667","Precipitacion","mm"
"0021015070","0240","2006-05-26T13:30:00.000","0","LOS GUACHAROS  - AUT","HUILA","PALESTINA","ALTO MAGDALENA","1.675833","-76.106841","Precipitacion","mm"
"0029067160","0240","2019-04-03T04:40:00.000","0","PUENTE SEVILLA  - AUT","MAGDALENA","CIÉNAGA","BAJO MAGDALENA","10.79883333","-74.02858333","Precipitacion","mm"
"0013055040","0240","2006-11-04T09:10:00.000","0","INCODER - AUT","CORDOBA","MONTERÍA","SINÚ","8.746944444","-75.91388889","Precipitacion","mm"
"0026247050","0240","2019-01-01T04:30:00.000","0","LAS CAMELIAS - AUT","ANTIOQUIA","TARAZÁ","CAUCA","7.582527778","-75.42005556","Precipitacion","mm"
"0016055120","0240","2017-12-03T12:30:00.000","0","AGUAS DE LA VIRGEN  - AUT","NORTE DE SANTANDER","OCAÑA","CATATUMBO","8.227694444","-73.3975","Precipitacion","mm"
"0012015110","0240","2018-11-06T23:40:00.000","0","CHIGORODO - AUT","ANTIOQUIA","CHIGORODÓ","CARIBE - LITORAL","7.671138889","-76.69405556","Precipitacion","mm"
"0014015020","0240","2015-06-19T07:40:00.000","0","APTO RAFAEL NUÑEZ  TX GPRS","BOLÍVAR","CARTAGENA","CARIBE - LITORAL","10.447","-75.516","Precipitacion","mm"
"0015065180","0240","2017-04-17T23:10:00.000","0","APTO ALMIRANTE PADILLA TX GPRS","LA GUAJIRA","RIOHACHA","CARIBE - GUAJIRA","11.53","-72.918","Precipitacion","mm"
"0021255170","0240","2012-09-27T22:30:00.000","0","MURILLO - AUT","TOLIMA","MURILLO","ALTO MAGDALENA","4.870555556","-75.17327778","Precipitacion","mm"
"0026185501","0240","2017-10-16T13:55:00.000","0","SONSON  - AUT","ANTIOQUIA","SONSÓN","CAUCA","5.677719444","-75.34780556","Precipitacion","mm"
"0021165501","0240","2019-02-27T22:45:00.000","0","DOLORES  - AUT","TOLIMA","DOLORES","ALTO MAGDALENA","3.537155556","-74.82982778","Precipitacion","mm"
"0022057010","0240","2014-09-08T08:10:00.000","0","PIEDRAS DE COBRE  - AUT","TOLIMA","SALDAÑA","SALDAÑA","3.908388889","-75.10327778","Precipitacion","mm"
"2120000099","0240","2018-12-20T15:59:00.000","0","COLEGIO VEINTIUN ANGELES - AUT","BOGOTA D.C.","BOGOTA, D.C","ALTO MAGDALENA","4.749","-74.081","Precipitacion","mm"
"0023125501","0240","2019-03-13T09:25:00.000","0","PAUNA  - AUT","BOYACÁ","PAUNA","MEDIO MAGDALENA","5.657130556","-73.96032778","Precipitacion","mm"
"0023065180","0240","2009-11-23T18:10:00.000","0","VILLETA - AUT","CUNDINAMARCA","VILLETA","MEDIO MAGDALENA","5.016861111","-74.47097222","Precipitacion","mm"
"0021205502","0240","2017-07-31T19:45:00.000","0","MISIONES  - AUT","CUNDINAMARCA","EL COLEGIO","ALTO MAGDALENA","4.544997222","-74.44055556","Precipitacion","mm"
"0035075080","0240","2018-01-11T14:00:00.000","0","PARAMO RABANAL - AUT","BOYACÁ","VENTAQUEMADA","META","5.392388889","-73.56277778","Precipitacion","mm"
"0015065180","0240","2018-12-17T13:10:00.000","0","APTO ALMIRANTE PADILLA TX GPRS","LA GUAJIRA","RIOHACHA","CARIBE - GUAJIRA","11.53","-72.918","Precipitacion","mm"
"0023087210","0240","2010-05-22T12:40:00.000","0","CANTERAS - AUT","ANTIOQUIA","PUERTO NARE","MEDIO MAGDALENA","6.276083333","-74.67330556","Precipitacion","mm"
"0046015030","0240","2019-01-06T06:00:00.000","0","SAN VICENTE DEL CAGUAN  - AUT","CAQUETA","SAN VICENTE DEL CAGUÁN","CAGUÁN","2.063","-74.76269444","Precipitacion","mm"
"0026065502","0240","2017-10-26T12:05:00.000","0","TRINIDAD LA  - AUT","CAUCA","PIENDAMÓ","CAUCA","2.750555556","-76.57916667","Precipitacion","mm"
"0017019010","0240","2017-01-06T04:10:00.000","0","SAN ANDRES","SAN ANDRÉS PROVIDENCIA","SAN ANDRÉS","ISLAS CARIBE","12.556","-81.703","Precipitacion","mm"
"0021015050","0240","2009-05-20T16:10:00.000","0","PURACE  - AUT","HUILA","SAN AGUSTÍN","ALTO MAGDALENA","1.925916667","-76.42755556","Precipitacion","mm"
"0023195090","0240","2019-07-06T01:30:00.000","0","VIVERO SURATA  - AUT","SANTANDER","SURATÁ","MEDIO MAGDALENA","7.365833333","-72.9875","Precipitacion","mm"
"0055015010","0240","2018-11-28T08:30:00.000","0","PIE DE PATO - AUT","CHOCO","ALTO BAUDÓ (PIE DE PATO)","BAUDÓ - DIRECTOS PACIFICO","5.521083333","-76.97316667","Precipitacion","mm"
"0023085501","0240","2017-04-19T09:30:00.000","0","COCORNA  - AUT","ANTIOQUIA","COCORNÁ","MEDIO MAGDALENA","6.061941667","-75.18666667","Precipitacion","mm"
"0015075501","0240","2015-01-23T07:37:00.000","0","AEROPUERTO PUERTO BOLIVAR  - AUT","LA GUAJIRA","URIBIA","CARIBE - GUAJIRA","12.22430556","-71.98288889","Precipitacion","mm"
"0023035030","0240","2016-12-05T23:50:00.000","0","BASE PALANQUERO  - AUT","CUNDINAMARCA","PUERTO SALGAR","MEDIO MAGDALENA","5.492861111","-74.658","Precipitacion","mm"
"0013057010","0240","2009-05-17T04:20:00.000","0","NUEVA COLOMBIA","CÓRDOBA","MONTERÍA","SINÚ","8.499","-75.979","Precipitacion","mm"
"0026105240","0240","2018-07-08T09:50:00.000","0","EL PLACER - AUT","VALLE DEL CAUCA","BUGA","CAUCA","3.879111111","-76.10055556","Precipitacion","mm"
"0015085050","0240","2017-06-05T03:00:00.000","0","TOROMANA - AUT","LA GUAJIRA","URIBIA","CARIBE - GUAJIRA","12.08352778","-71.21094444","Precipitacion","mm"
"0026125505","0240","2018-10-11T10:30:00.000","0","LA BELLA  - AUT","QUINDÍO","CALARCÁ","CAUCA","4.501111111","-75.67138889","Precipitacion","mm"
"0021202210","0240","2014-11-01T16:20:00.000","0","MICAELA - FOPAE","BOGOTA D.C.","BOGOTA, D.C","ALTO MAGDALENA","4.506","-74.086","Precipitacion","mm"
"0024015110","0240","2016-01-17T13:30:00.000","0","LA BOYERA - AUT","CUNDINAMARCA","UBATÉ","SOGAMOSO","5.303805556","-73.85175","Precipitacion","mm"
"0021202180","0240","2008-03-02T17:20:00.000","0","QUIBA - FOPAE","BOGOTA D.C.","BOGOTA, D.C","ALTO MAGDALENA","4.543","-74.156","Precipitacion","mm"
"0021105501","0240","2016-08-17T00:45:00.000","0","ALGECIRAS  - AUT","HUILA","ALGECIRAS","ALTO MAGDALENA","2.595027778","-75.22852778","Precipitacion","mm"
"0023035030","0240","2015-04-01T13:10:00.000","0","BASE PALANQUERO  - AUT","CUNDINAMARCA","PUERTO SALGAR","MEDIO MAGDALENA","5.492861111","-74.658","Precipitacion","mm"
"0012017020","0240","2019-06-06T03:10:00.000","0","BARRANQUILLITA  - AUT","ANTIOQUIA","CHIGORODÓ","CARIBE - LITORAL","7.571583333","-76.71055556","Precipitacion","mm"
"0021015501","0240","2019-07-05T22:25:00.000","0","PITALITO  - AUT","HUILA","PITALITO","ALTO MAGDALENA","1.777527778","-76.19163889","Precipitacion","mm"
"0023087210","0240","2016-09-21T04:30:00.000","0","CANTERAS - AUT","ANTIOQUIA","PUERTO NARE","MEDIO MAGDALENA","6.276083333","-74.67330556","Precipitacion","mm"
"0015065190","0240","2018-07-02T09:10:00.000","0","MONGUI","LA GUAJIRA","RIOHACHA","CARIBE - GUAJIRA","11.227","-72.821","Precipitacion","mm"
"0023065180","0240","2014-03-08T19:50:00.000","0","VILLETA - AUT","CUNDINAMARCA","VILLETA","MEDIO MAGDALENA","5.016861111","-74.47097222","Precipitacion","mm"
"0016015130","0240","2018-04-11T02:00:00.000","0","ALCALDIA DE HERRAN  - AUT","NORTE DE SANTANDER","HERRÁN","CATATUMBO","7.506722222","-72.48536111","Precipitacion","mm"
"0023125501","0240","2019-07-08T16:40:00.000","0","PAUNA  - AUT","BOYACÁ","PAUNA","MEDIO MAGDALENA","5.657130556","-73.96032778","Precipitacion","mm"
"0021202230","0240","2008-03-12T20:00:00.000","0","UAN SEDE USME - FOPAE","BOGOTA D.C.","BOGOTA, D.C","ALTO MAGDALENA","4.467","-74.117","Precipitacion","mm"
"0025025340","0240","2018-04-18T12:00:00.000","0","SAN MARCOS - AUT","SUCRE","SAN MARCOS","BAJO MAGDALENA- CAUCA -SAN JORGE","8.596833333","-75.14269444","Precipitacion","mm"
"0052055502","0240","2018-05-20T04:00:00.000","0","SANDONA  - AUT","NARIÑO","SANDONÁ","PATÍA","1.300888889","-77.46035833","Precipitacion","mm"
"0036015501","0240","2019-07-24T05:55:00.000","0","TAMARA  - AUT","CASANARE","TÁMARA","CASANARE","5.872219444","-72.11944167","Precipitacion","mm"
"0035017020","0240","2018-03-22T08:30:00.000","0","PUENTE LLERAS - AUT","META","PUERTO LÓPEZ","META","4.103019444","-72.93638333","Precipitacion","mm"
"2120000106","0240","2019-08-09T22:11:00.000","0","GRAN BRETAÑA - AUT","BOGOTA D.C.","BOGOTA, D.C","ALTO MAGDALENA","4.512","-74.164","Precipitacion","mm"
"0021206960","0240","2011-08-03T00:40:00.000","0","IDEAM BOGOTA  - AUT","BOGOTA","BOGOTA, D.C","ALTO MAGDALENA","4.6","-74.06666667","Precipitacion","mm"
"0014015020","0240","2017-06-12T00:10:00.000","0","APTO RAFAEL NUÑEZ  TX GPRS","BOLÍVAR","CARTAGENA","CARIBE - LITORAL","10.447","-75.516","Precipitacion","mm"
"0021197430","0240","2007-11-21T07:30:00.000","0","PROVIDENCIA - PROVIDENCIA","CUNDINAMARCA","FUSAGASUGÁ","ALTO MAGDALENA","4.367","-74.3","Precipitacion","mm"
"0023035030","0240","2006-04-26T02:40:00.000","0","BASE PALANQUERO  - AUT","CUNDINAMARCA","PUERTO SALGAR","MEDIO MAGDALENA","5.492861111","-74.658","Precipitacion","mm"
"0021257120","0240","2015-08-05T04:50:00.000","0","PUENTE NEGRO  - AUT","TOLIMA","VILLAHERMOSA","ALTO MAGDALENA","4.940194444","-75.08980556","Precipitacion","mm"
"0021206950","0240","2010-02-27T00:40:00.000","0","PARAMO GUACHENEQUE  - AUT","CUNDINAMARCA","VILLAPINZÓN","ALTO MAGDALENA","5.236055556","-73.52508333","Precipitacion","mm"
"0023195230","0240","2018-06-05T04:20:00.000","0","NEOMUNDO - AUT","SANTANDER","BUCARAMANGA","MEDIO MAGDALENA","7.102611111","-73.10730556","Precipitacion","mm"
"0014017001","0240","2018-11-26T16:20:00.000","0","TESORO INVEMAR","BOLÍVAR","CARTAGENA DE INDIAS","BAJO MAGDALENA","10.235","-75.741","Precipitacion","mm"
"0023097030","0240","2019-02-08T01:40:00.000","0","PTO BERRIO TX GPRS","ANTIOQUIA","PUERTO BERRÍO","MEDIO MAGDALENA","6.485","-74.401","Precipitacion","mm"
"0027015501","0240","2018-05-02T19:25:00.000","0","YOLOMBO  - AUT","ANTIOQUIA","YOLOMBÓ","NECHÍ","6.580958333","-75.11487778","Precipitacion","mm"
"0011027070","0240","2016-08-18T13:30:00.000","0","BORAUDO","CHOCÓ","LLORÓ","ATRATO - DARIÉN","5.515","-76.576","Precipitacion","mm"
"0015015120","0240","2015-03-31T08:29:00.000","0","UNIVERSIDAD TECNOLOGICA  - AUT","MAGDALENA","SANTA MARTA","CARIBE - GUAJIRA","11.22305556","-74.18591667","Precipitacion","mm"
"0023085270","0240","2014-12-13T05:10:00.000","0","APTO J.M CORDOVA TX GPRS","ANTIOQUIA","RIONEGRO","MEDIO MAGDALENA","6.169","-75.426","Precipitacion","mm"
"0053045040","0240","2017-10-02T03:00:00.000","0.2","AEROPUERTO GUAPI - AUT","CAUCA","GUAPI","TAPAJE - DAGUA - DIRECTOS","2.574416667","-77.89475","Precipitacion","mm"
"0026015040","0240","2018-11-24T06:30:00.000","0","ARRAYANALES - AUT","CAUCA","POPAYÁN","CAUCA","2.448041111","-76.43574694","Precipitacion","mm"
"0026055110","0240","2017-12-21T11:30:00.000","0","LA INDEPENDENCIA - AUT","VALLE DEL CAUCA","JAMUNDÍ","CAUCA","3.185361111","-76.56930556","Precipitacion","mm"
"0024037080","0240","2019-06-21T23:50:00.000","0","LA GRUTA  - AUT","BOYACÁ","PESCA","SOGAMOSO","5.566972222","-73.04672222","Precipitacion","mm"
"0015015120","0240","2016-07-05T22:51:00.000","0","UNIVERSIDAD TECNOLOGICA  - AUT","MAGDALENA","SANTA MARTA","CARIBE - GUAJIRA","11.22305556","-74.18591667","Precipitacion","mm"
"0035025501","0240","2019-05-30T23:10:00.000","0","QUETAME  - AUT","CUNDINAMARCA","QUETAME","META","4.297941667","-73.87238889","Precipitacion","mm"
"2120000104","0240","2019-05-30T00:32:00.000","0","COLEGIO MIGUEL ANTONIO CARO - AUT","BOGOTA D.C.","BOGOTA, D.C","ALTO MAGDALENA","4.813","-74.031","Precipitacion","mm"
"0021085501","0240","2019-02-19T18:50:00.000","0","TERUEL  - AUT","HUILA","TERUEL","ALTO MAGDALENA","2.762997222","-75.61144167","Precipitacion","mm"
"0052055170","0240","2018-11-23T08:20:00.000","0","LA JOSEFINA - AUT","NARIÑO","CONTADERO","PATÍA","0.930305556","-77.49119444","Precipitacion","mm"
"0021202230","0240","2009-04-14T13:00:00.000","0","UAN SEDE USME - FOPAE","BOGOTA D.C.","BOGOTA, D.C","ALTO MAGDALENA","4.467","-74.117","Precipitacion","mm"
"0026237040","0240","2019-06-13T13:30:00.000","0","PTO VALDIVIA","ANTIOQUIA","VALDIVIA","CAUCA","7.287","-75.396","Precipitacion","mm"
"0024035410","0240","2009-12-17T18:50:00.000","0","SOGAMOSO - AUT","BOYACÁ","SOGAMOSO","SOGAMOSO","5.753333333","-72.91115278","Precipitacion","mm"
"0015015120","0240","2016-08-26T08:55:00.000","0","UNIVERSIDAD TECNOLOGICA  - AUT","MAGDALENA","SANTA MARTA","CARIBE - GUAJIRA","11.22305556","-74.18591667","Precipitacion","mm"
"0024015504","0240","2016-05-29T23:00:00.000","0.1","RAQUIRA - CAR","BOYACÁ","RÁQUIRA","SOGAMOSO","5.536","-73.641","Precipitacion","mm"
"0021257120","0240","2017-04-13T05:20:00.000","0","PUENTE NEGRO  - AUT","TOLIMA","VILLAHERMOSA","ALTO MAGDALENA","4.940194444","-75.08980556","Precipitacion","mm"
"0054050010","0240","2019-07-12T20:30:00.000","1.6","PR CHOCO: NOANAMA","CHOCÓ","ISTMINA","SAN JUÁN","4.717","-76.917","Precipitacion","mm"
"0013057010","0240","2006-08-12T06:50:00.000","0","NUEVA COLOMBIA","CÓRDOBA","MONTERÍA","SINÚ","8.499","-75.979","Precipitacion","mm"
"0012015100","0240","2011-07-07T00:20:00.000","0","PISTA INDIRA - AUT","ANTIOQUIA","TURBO","CARIBE - LITORAL","7.94075","-76.69616667","Precipitacion","mm"
"0021206780","0240","2013-04-08T21:35:00.000","0","LA INDEPENDENCIA FOPAE Fuera de Servicio","BOGOTA D.C.","BOGOTA, D.C","ALTO MAGDALENA","4.617","-74.317","Precipitacion","mm"
"0044015070","0240","2018-09-15T07:00:00.000","0","EL PEPINO - AUT","PUTUMAYO","MOCOA","CAQUETÁ","1.082888889","-76.66711111","Precipitacion","mm"
"0013027040","0240","2018-11-29T05:00:00.000","0","CAÑO BARRO - LA MOJANA","CÓRDOBA","AYAPEL","SINÚ","8.236","-74.96","Precipitacion","mm"
"0021215190","0240","2013-09-19T11:40:00.000","0","CAJAMARCA - AUT","TOLIMA","CAJAMARCA","ALTO MAGDALENA","4.435666667","-75.50036111","Precipitacion","mm"
"0023085260","0240","2017-02-05T10:10:00.000","0","LA SELVA - AUT","ANTIOQUIA","RIONEGRO","MEDIO MAGDALENA","6.131916667","-75.41455556","Precipitacion","mm"
"0021165501","0240","2018-04-12T12:25:00.000","0","DOLORES  - AUT","TOLIMA","DOLORES","ALTO MAGDALENA","3.537155556","-74.82982778","Precipitacion","mm"
"0013095010","0240","2011-11-08T03:20:00.000","0","COVEÑAS - DIMAR","SUCRE","TOLÚ","CARIBE - LITORAL","9.383","-75.667","Precipitacion","mm"
"0026135501","0240","2018-08-09T08:00:00.000","0","EL PILAMO  - AUT","RISARALDA","PEREIRA","CAUCA","4.868333333","-75.79333333","Precipitacion","mm"
"0021237010","0240","2009-11-27T03:40:00.000","0","NARINO - AUT","CUNDINAMARCA","NARIÑO","ALTO MAGDALENA","4.387777778","-74.838375","Precipitacion","mm"
"0037027010","0240","2019-05-13T21:10:00.000","0","PEÑA DE LOS MICOS - AUT","NORTE DE SANTANDER","TOLEDO","ARAUCA","7.196972222","-72.42477778","Precipitacion","mm"
"0023055501","0240","2016-07-09T06:35:00.000","0","SANTA HELENA  - AUT","CALDAS","MARQUETALIA","MEDIO MAGDALENA","5.317497222","-74.99610833","Precipitacion","mm"
"0023125170","0240","2018-05-23T08:20:00.000","0","SAN CAYETANO - AUT","CUNDINAMARCA","SAN CAYETANO","MEDIO MAGDALENA","5.333333333","-74.016666667","Precipitacion","mm"
"0013067020","0240","2016-01-17T03:50:00.000","0","MONTERIA  - AUT","CORDOBA","MONTERÍA","SINÚ","8.751611111","-75.89241667","Precipitacion","mm"
"0053115501","0240","2019-07-26T20:10:00.000","0.1","DAGUA  - AUT","VALLE DEL CAUCA","DAGUA","TAPAJE - DAGUA - DIRECTOS","3.610441667","-76.63785833","Precipitacion","mm"
"0021205501","0240","2016-07-27T21:50:00.000","0","MESITAS DE SANTA INES  - AUT","CUNDINAMARCA","CACHIPAY","ALTO MAGDALENA","4.718611111","-74.45527778","Precipitacion","mm"
"0024015110","0240","2018-05-18T15:10:00.000","0","LA BOYERA - AUT","CUNDINAMARCA","UBATÉ","SOGAMOSO","5.303805556","-73.85175","Precipitacion","mm"
"0021015060","0240","2019-03-31T19:30:00.000","0","MARENGO  - AUT","HUILA","PITALITO","ALTO MAGDALENA","2.221111111","-76.11888889","Precipitacion","mm"
"1117500060","0240","2019-05-11T03:30:00.000","3.4","LLORO - AUT","CHOCO","LLORÓ","ATRATO - DARIÉN","5.514722222","-76.575833333","Precipitacion","mm"
"0011105020","0240","2018-10-02T16:10:00.000","0","CARMEN DARIEN","CHOCÓ","CARMEN DEL DARIÉN  (CURBARADÓ)","ATRATO - DARIÉN","7.154","-76.977","Precipitacion","mm"
"0052035040","0240","2018-07-28T15:50:00.000","0","VIENTO LIBRE - AUT","NARIÑO","TAMINANGO","PATÍA","1.6185","-77.34361111","Precipitacion","mm"
"0021195160","0240","2011-10-24T17:00:00.000","0","SUBIA","CUNDINAMARCA","SILVANIA","ALTO MAGDALENA","4.477","-74.384","Precipitacion","mm"
"0021195160","0240","2010-07-31T21:30:00.000","0","SUBIA","CUNDINAMARCA","SILVANIA","ALTO MAGDALENA","4.477","-74.384","Precipitacion","mm"
"0023035030","0240","2007-04-26T07:30:00.000","0","BASE PALANQUERO  - AUT","CUNDINAMARCA","PUERTO SALGAR","MEDIO MAGDALENA","5.492861111","-74.658","Precipitacion","mm"
"0051025090","0240","2017-11-14T10:20:00.000","0","GRANJA MIRA","NARINO","TUMACO","MIRA","1.55","-78.696","Precipitacion","mm"
"0024035430","0240","2019-06-26T23:00:00.000","0","TUNGUAVITA - AUT","BOYACÁ","PAIPA","SOGAMOSO","5.745916667","-73.11636111","Precipitacion","mm"
"0023190130","0240","2019-07-06T23:10:00.000","0","TONA  - AUT","SANTANDER","TONA","MEDIO MAGDALENA","7.196111111","-72.97055556","Precipitacion","mm"
"0035185010","0240","2019-08-09T19:00:00.000","0","LA PALOMERA - AUT","META","PUERTO LÓPEZ","META","4.260361111","-72.56447222","Precipitacion","mm"
"0021205501","0240","2016-06-22T09:10:00.000","0","MESITAS DE SANTA INES  - AUT","CUNDINAMARCA","CACHIPAY","ALTO MAGDALENA","4.718611111","-74.45527778","Precipitacion","mm"
"0021215501","0240","2018-12-09T01:35:00.000","0","ESPERANZA LA  - AUT","TOLIMA","IBAGUÉ","ALTO MAGDALENA","4.45","-75.25","Precipitacion","mm"
"0023087210","0240","2019-01-09T21:40:00.000","0","CANTERAS - AUT","ANTIOQUIA","PUERTO NARE","MEDIO MAGDALENA","6.276083333","-74.67330556","Precipitacion","mm"
"0026115501","0240","2017-11-10T13:50:00.000","0","MANUEL MARIA MALLARINO  - AUT","VALLE DEL CAUCA","TRUJILLO","CAUCA","4.213611111","-76.31497222","Precipitacion","mm"
"0021205502","0240","2019-07-09T15:50:00.000","0","MISIONES  - AUT","CUNDINAMARCA","EL COLEGIO","ALTO MAGDALENA","4.544997222","-74.44055556","Precipitacion","mm"
"0021015060","0240","2015-05-11T22:50:00.000","0","MARENGO  - AUT","HUILA","PITALITO","ALTO MAGDALENA","2.221111111","-76.11888889","Precipitacion","mm"
"2120000102","0240","2019-05-12T05:21:00.000","0","COLEGIO CARLOS PIZARRO - AUT","BOGOTA D.C.","BOGOTA, D.C","ALTO MAGDALENA","4.635","-74.205","Precipitacion","mm"
"0023125160","0240","2010-07-01T20:20:00.000","0.1","SAN PABLO DE BORBUR  - AUT","BOYACÁ","SAN PABLO DE BORBUR","MEDIO MAGDALENA","5.647027778","-74.07130556","Precipitacion","mm"
"0029035200","0240","2017-11-22T17:10:00.000","0","REPELON - AUT","ATLANTICO","REPELÓN","BAJO MAGDALENA","10.49","-75.12694444","Precipitacion","mm"
"0021115180","0240","2005-09-27T05:10:00.000","0","HACIENDA MANILA - AUT","HUILA","BARAYA","ALTO MAGDALENA","3.133055556","-75.08152778","Precipitacion","mm"
"0037057020","0240","2017-04-10T15:10:00.000","0","ALCARAVAN  AUT","ARAUCA","ARAUQUITA","ARAUCA","7.035","-71.41638889","Precipitacion","mm"
"0052055220","0240","2017-07-14T19:00:00.000","0","EL PARAISO - AUT","NARIÑO","TÚQUERRES","PATÍA","1.070611111","-77.63688889","Precipitacion","mm"
"0021206780","0240","2013-10-29T05:15:00.000","0","LA INDEPENDENCIA FOPAE Fuera de Servicio","BOGOTA D.C.","BOGOTA, D.C","ALTO MAGDALENA","4.617","-74.317","Precipitacion","mm"
"0026085160","0240","2018-08-25T15:10:00.000","0","SILOE - AUT","VALLE DEL CAUCA","CALI","CAUCA","3.4255","-76.56061111","Precipitacion","mm"
"0021215190","0240","2012-06-30T09:10:00.000","0","CAJAMARCA - AUT","TOLIMA","CAJAMARCA","ALTO MAGDALENA","4.435666667","-75.50036111","Precipitacion","mm"
"0026135503","0240","2017-10-03T22:40:00.000","0","NARANJAL  - AUT","CALDAS","CHINCHINA","CAUCA","4.971944444","-75.65221944","Precipitacion","mm"
"0014019030","0240","2015-03-06T03:10:00.000","0","CC DIQUE: CIOH","BOLÍVAR","CARTAGENA DE INDIAS","CARIBE - LITORAL","10.391","-75.534","Precipitacion","mm"
"0016035501","0240","2017-06-06T16:45:00.000","0","SARDINATA  - AUT","NORTE DE SANTANDER","SARDINATA","CATATUMBO","8.151169444","-72.86776667","Precipitacion","mm"
"0052055502","0240","2018-11-10T21:35:00.000","0","SANDONA  - AUT","NARIÑO","SANDONÁ","PATÍA","1.300888889","-77.46035833","Precipitacion","mm"
"0026145090","0240","2018-07-05T17:40:00.000","0","SANTA EMILIA - AUT","RISARALDA","BELÉN DE UMBRÍA","CAUCA","5.207472222","-75.90294444","Precipitacion","mm"
"0015065501","0240","2015-06-20T14:48:00.000","0","LA MINA CERREJON  - AUT","LA GUAJIRA","ALBANIA","CARIBE - GUAJIRA","11.13758333","-72.61594444","Precipitacion","mm"
"0023125170","0240","2005-07-21T02:30:00.000","0","SAN CAYETANO - AUT","CUNDINAMARCA","SAN CAYETANO","MEDIO MAGDALENA","5.333333333","-74.016666667","Precipitacion","mm"
"0022075050","0240","2013-11-19T12:20:00.000","0","PARAMO DE YERBABUENA  - AUT","TOLIMA","RONCESVALLES","SALDAÑA","4.075805556","-75.70083333","Precipitacion","mm"
"0021015070","0240","2018-10-31T17:40:00.000","0","LOS GUACHAROS  - AUT","HUILA","PALESTINA","ALTO MAGDALENA","1.675833","-76.106841","Precipitacion","mm"
"0011175000","0240","2018-05-06T12:00:00.000","0","PR CHOCO: ATRATO","CHOCÓ","EL ATRATO","ATRATO - DARIÉN","5.529","-76.634","Precipitacion","mm"
"0021137010","0240","2013-03-02T10:39:00.000","0","PURIFICACION","TOLIMA","PURIFICACIÓN","ALTO MAGDALENA","3.85","-74.936","Precipitacion","mm"
"0016015120","0240","2012-11-09T09:20:00.000","0","UNIVERSIDAD DE PAMPLONA  - AUT","NORTE DE SANTANDER","PAMPLONA","CATATUMBO","7.360944444","-72.66605556","Precipitacion","mm"
"2613700156","0240","2019-08-21T20:40:00.000","0","PUERTO CALDAS - AUT","RISARALDA","PEREIRA","CAUCA","4.814113889","-75.917961111","Precipitacion","mm"
"0026125502","0240","2017-08-25T23:25:00.000","0","CAICEDONIA  - AUT","VALLE DEL CAUCA","CAICEDONIA","CAUCA","4.297558333","-75.86396111","Precipitacion","mm"
"0021237020","0240","2018-08-21T12:10:00.000","0","ARRANCAPLUMAS  - AUT","CUNDINAMARCA","GUADUAS","ALTO MAGDALENA","5.202416667","-74.72761111","Precipitacion","mm"
"0026237040","0240","2018-07-12T23:40:00.000","0","PTO VALDIVIA","ANTIOQUIA","VALDIVIA","CAUCA","7.287","-75.396","Precipitacion","mm"
"0029065501","0240","2018-09-29T00:15:00.000","0","CIENAGA,LA  - AUT","MAGDALENA","CIÉNAGA","BAJO MAGDALENA","10.89785833","-74.08156667","Precipitacion","mm"
"2120700038","0240","2018-12-23T06:25:00.000","0","SAN FRANCISCO - AUT","BOGOTA D.C.","BOGOTA, D.C","ALTO MAGDALENA","4.562","-74.149","Precipitacion","mm"
"0021195170","0240","2011-02-18T14:10:00.000","0","PAQUILO - AUT","CUNDINAMARCA","CABRERA","ALTO MAGDALENA","3.993611111","-74.39805556","Precipitacion","mm"
"0054035501","0240","2017-11-16T07:40:00.000","0","SANTIAGO GUTIERREZ  - AUT","VALLE DEL CAUCA","ARGELIA","SAN JUÁN","4.726388889","-76.11446944","Precipitacion","mm"
"0026125506","0240","2017-06-06T09:00:00.000","0","EL AGRADO  - AUT","QUINDÍO","MONTENEGRO","CAUCA","4.518333333","-75.7925","Precipitacion","mm"
"0035217060","0240","2019-02-10T23:00:00.000","0","PERENCO: EL PLAYON","CASANARE","NUNCHÍA","META","5.54","-72.232","Precipitacion","mm"
"0015015120","0240","2011-03-07T00:20:00.000","0","UNIVERSIDAD TECNOLOGICA  - AUT","MAGDALENA","SANTA MARTA","CARIBE - GUAJIRA","11.22305556","-74.18591667","Precipitacion","mm"
"0024025501","0240","2018-01-23T21:35:00.000","0","ALBERTO SANTOS  - AUT","SANTANDER","SOCORRO","SOGAMOSO","6.493052778","-73.22111111","Precipitacion","mm"
"0021206990","0240","2010-09-06T05:40:00.000","0","TIBAITATA - AUT","CUNDINAMARCA","MOSQUERA","ALTO MAGDALENA","4.691416667","-74.209","Precipitacion","mm"
"2120000107","0240","2018-10-23T08:41:00.000","0","LA FISCALA - AUT","BOGOTA D.C.","BOGOTA, D.C","ALTO MAGDALENA","4.536","-74.106","Precipitacion","mm"
"0021206780","0240","2015-11-16T15:45:00.000","0","LA INDEPENDENCIA FOPAE Fuera de Servicio","BOGOTA D.C.","BOGOTA, D.C","ALTO MAGDALENA","4.617","-74.317","Precipitacion","mm"
"0023125170","0240","2015-03-09T07:10:00.000","0","SAN CAYETANO - AUT","CUNDINAMARCA","SAN CAYETANO","MEDIO MAGDALENA","5.333333333","-74.016666667","Precipitacion","mm"
"0021045501","0240","2017-06-21T17:40:00.000","0","OPORAPA  - AUT","HUILA","OPORAPA","ALTO MAGDALENA","2.041941667","-76.01191667","Precipitacion","mm"
"0023017040","0240","2019-06-18T20:30:00.000","0","LA ESPERANZA- GUALÍ","TOLIMA","MARIQUITA","MEDIO MAGDALENA","5.206","-74.914","Precipitacion","mm"
"0021197010","0240","2016-06-17T03:40:00.000","0","EL PROFUNDO - AUT","CUNDINAMARCA","CABRERA","ALTO MAGDALENA","4.011694444","-74.504444444","Precipitacion","mm"
"0015067020","0240","2009-04-11T06:59:05.000","0","EL CERCADO","LA GUAJIRA","FONSECA","CARIBE - GUAJIRA","10.908","-73.008","Precipitacion","mm"
"0026155502","0240","2017-05-21T02:10:00.000","0","CENICAFE  - AUT","CALDAS","MANIZALES","CAUCA","4.991111111","-75.59749722","Precipitacion","mm"
"0021202230","0240","2012-08-21T20:25:00.000","0","UAN SEDE USME - FOPAE","BOGOTA D.C.","BOGOTA, D.C","ALTO MAGDALENA","4.467","-74.117","Precipitacion","mm"
"0025025190","0240","2019-03-05T09:10:00.000","0","PLANETA RICA  - AUT","CORDOBA","PLANETA RICA","BAJO MAGDALENA- CAUCA -SAN JORGE","8.399333333","-75.58372222","Precipitacion","mm"
"0035075080","0240","2018-07-22T22:00:00.000","0","PARAMO RABANAL - AUT","BOYACÁ","VENTAQUEMADA","META","5.392388889","-73.56277778","Precipitacion","mm"
"0026145501","0240","2018-12-31T18:55:00.000","0","APIA  - AUT","RISARALDA","APÍA","CAUCA","5.105055556","-75.93305556","Precipitacion","mm"
"0011027070","0240","2016-04-15T20:30:00.000","0","BORAUDO","CHOCÓ","LLORÓ","ATRATO - DARIÉN","5.515","-76.576","Precipitacion","mm"
"0021255160","0240","2007-11-11T16:20:00.000","0","HACIENDA PAJONALES","TOLIMA","AMBALEMA","ALTO MAGDALENA","4.760722222","-74.83425","Precipitacion","mm"
"2120000102","0240","2019-08-18T19:54:00.000","0","COLEGIO CARLOS PIZARRO - AUT","BOGOTA D.C.","BOGOTA, D.C","ALTO MAGDALENA","4.635","-74.205","Precipitacion","mm"
"0023087210","0240","2009-11-17T09:30:00.000","0","CANTERAS - AUT","ANTIOQUIA","PUERTO NARE","MEDIO MAGDALENA","6.276083333","-74.67330556","Precipitacion","mm"
"0023085501","0240","2017-08-29T04:10:00.000","0","COCORNA  - AUT","ANTIOQUIA","COCORNÁ","MEDIO MAGDALENA","6.061941667","-75.18666667","Precipitacion","mm"
"0024025501","0240","2019-07-28T04:10:00.000","0","ALBERTO SANTOS  - AUT","SANTANDER","SOCORRO","SOGAMOSO","6.493052778","-73.22111111","Precipitacion","mm"
"0011159010","0240","2008-05-03T16:10:00.000","0","CAPURGANA - TX GPRS","CHOCÓ","ACANDÍ","ATRATO - DARIÉN","8.616","-77.331","Precipitacion","mm"
"0021015050","0240","2019-03-07T04:40:00.000","0","PURACE  - AUT","HUILA","SAN AGUSTÍN","ALTO MAGDALENA","1.925916667","-76.42755556","Precipitacion","mm"
"0035160020","0240","2018-07-20T02:40:00.000","0","PR TOTA: LLANO ALARCON","BOYACÁ","CUÍTIVA","META","5.6","-72.913","Precipitacion","mm"
"2120000099","0240","2019-01-04T09:11:00.000","0","COLEGIO VEINTIUN ANGELES - AUT","BOGOTA D.C.","BOGOTA, D.C","ALTO MAGDALENA","4.749","-74.081","Precipitacion","mm"
"0026125507","0240","2018-07-10T04:45:00.000","0","ARTURO GOMEZ  - AUT","VALLE DEL CAUCA","ALCALÁ","CAUCA","4.671388889","-75.77721944","Precipitacion","mm"
"0023117030","0240","2008-12-11T08:40:00.000","0","EL TAGUAL","SANTANDER","CIMITARRA","MEDIO MAGDALENA","6.733","-74.16","Precipitacion","mm"
"0016040050","0240","2019-04-19T15:40:00.000","0","LA MARIA - AUT","NORTE DE SANTANDER","ÁBREGO","CATATUMBO","7.934444444","-73.21166667","Precipitacion","mm"
"0044035050","0240","2017-06-01T09:30:00.000","0","MACAGUAL - AUT","CAQUETA","FLORENCIA","CAQUETÁ","1.499722222","-75.661","Precipitacion","mm"
"0014017001","0240","2013-03-13T00:50:00.000","0","TESORO INVEMAR","BOLÍVAR","CARTAGENA DE INDIAS","BAJO MAGDALENA","10.235","-75.741","Precipitacion","mm"
"2120000104","0240","2019-07-02T17:40:00.000","0","COLEGIO MIGUEL ANTONIO CARO - AUT","BOGOTA D.C.","BOGOTA, D.C","ALTO MAGDALENA","4.813","-74.031","Precipitacion","mm"
"0021206960","0240","2017-09-08T21:30:00.000","0","IDEAM BOGOTA  - AUT","BOGOTA","BOGOTA, D.C","ALTO MAGDALENA","4.6","-74.06666667","Precipitacion","mm"
"0016047010","0240","2019-05-07T09:00:00.000","0","PUENTE ABREGO - AUT","NORTE DE SANTANDER","ÁBREGO","CATATUMBO","8.043333333","-73.08305556","Precipitacion","mm"
"0015085050","0240","2016-01-26T22:30:00.000","0","TOROMANA - AUT","LA GUAJIRA","URIBIA","CARIBE - GUAJIRA","12.08352778","-71.21094444","Precipitacion","mm"
"0021206890","0240","2014-10-18T15:35:00.000","0","CERRO CAZADORES - FOPAE","BOGOTA D.C.","BOGOTA, D.C","ALTO MAGDALENA","4.65","-74.017","Precipitacion","mm"
"0021206920","0240","2015-07-01T20:30:00.000","0","VILLA TERESA - AUT","BOGOTA","BOGOTA, D.C","ALTO MAGDALENA","4.35","-74.15","Precipitacion","mm"
"0013095010","0240","2006-12-04T03:20:00.000","0","COVEÑAS - DIMAR","SUCRE","TOLÚ","CARIBE - LITORAL","9.383","-75.667","Precipitacion","mm"
"2120000106","0240","2019-02-07T10:07:00.000","0","GRAN BRETAÑA - AUT","BOGOTA D.C.","BOGOTA, D.C","ALTO MAGDALENA","4.512","-74.164","Precipitacion","mm"
"2120000102","0240","2019-06-05T03:19:00.000","0","COLEGIO CARLOS PIZARRO - AUT","BOGOTA D.C.","BOGOTA, D.C","ALTO MAGDALENA","4.635","-74.205","Precipitacion","mm"
"0023065180","0240","2017-02-07T18:50:00.000","0","VILLETA - AUT","CUNDINAMARCA","VILLETA","MEDIO MAGDALENA","5.016861111","-74.47097222","Precipitacion","mm"
"0015015120","0240","2014-10-26T01:44:00.000","0","UNIVERSIDAD TECNOLOGICA  - AUT","MAGDALENA","SANTA MARTA","CARIBE - GUAJIRA","11.22305556","-74.18591667","Precipitacion","mm"
"0021105501","0240","2017-07-03T01:40:00.000","0","ALGECIRAS  - AUT","HUILA","ALGECIRAS","ALTO MAGDALENA","2.595027778","-75.22852778","Precipitacion","mm"
"0021055501","0240","2019-01-14T03:25:00.000","0","SIMON CAMPOS  - AUT","HUILA","LA PLATA","ALTO MAGDALENA","2.345830556","-75.87805556","Precipitacion","mm"
"0023125501","0240","2017-07-13T18:05:00.000","0","PAUNA  - AUT","BOYACÁ","PAUNA","MEDIO MAGDALENA","5.657130556","-73.96032778","Precipitacion","mm"
"0035195060","0240","2019-05-14T13:00:00.000","0","PERENCO: TOQUILLA","BOYACÁ","AQUITANIA","META","5.524","-72.791","Precipitacion","mm"
"0021209920","0240","2013-05-02T01:20:00.000","0","SANTA ROSITA - AUT","CUNDINAMARCA","SUESCA","ALTO MAGDALENA","5.19225","-73.77905556","Precipitacion","mm"
"0023195230","0240","2017-10-04T13:50:00.000","0.208","NEOMUNDO - AUT","SANTANDER","BUCARAMANGA","MEDIO MAGDALENA","7.102611111","-73.10730556","Precipitacion","mm"
"2120000106","0240","2019-08-17T23:28:00.000","0","GRAN BRETAÑA - AUT","BOGOTA D.C.","BOGOTA, D.C","ALTO MAGDALENA","4.512","-74.164","Precipitacion","mm"
"0021257120","0240","2011-01-02T20:00:00.000","0","PUENTE NEGRO  - AUT","TOLIMA","VILLAHERMOSA","ALTO MAGDALENA","4.940194444","-75.08980556","Precipitacion","mm"
"0026185030","0240","2017-03-17T20:10:00.000","0","JERICO - AUT","ANTIOQUIA","JERICÓ","CAUCA","5.799166667","-75.78952778","Precipitacion","mm"
"2120000108","0240","2019-03-07T13:50:00.000","0","IDIGER - AUT","BOGOTA D.C.","BOGOTA, D.C","ALTO MAGDALENA","4.675","-74.114","Precipitacion","mm"
"0052035501","0240","2017-12-23T03:25:00.000","0","EL SAUCE  - AUT","NARIÑO","LA UNIÓN","PATÍA","1.615555556","-77.10971944","Precipitacion","mm"
"0021167080","0240","2010-02-23T00:20:00.000","0","LA MORA - AUT","TOLIMA","PRADO","ALTO MAGDALENA","3.725194444","-74.82644444","Precipitacion","mm"
"0023025501","0240","2018-02-10T18:40:00.000","0","MANZANARES  - AUT","CALDAS","MANZANARES","MEDIO MAGDALENA","5.163913889","-75.11740833","Precipitacion","mm"
"0016015110","0240","2012-01-22T13:30:00.000","0","UNIVERSIDAD FRANCISO DE PAULA SANTANDER - AUT","NORTE DE SANTANDER","CÚCUTA","CATATUMBO","7.898777778","-72.48716667","Precipitacion","mm"
"0035035110","0240","2018-04-19T23:30:00.000","0","SALINAS DE UPIN  - AUT","META","RESTREPO","META","4.273861111","-73.58686111","Precipitacion","mm"
"0026105240","0240","2017-04-11T23:30:00.000","0","EL PLACER - AUT","VALLE DEL CAUCA","BUGA","CAUCA","3.879111111","-76.10055556","Precipitacion","mm"
"0053115501","0240","2019-07-05T09:15:00.000","0","DAGUA  - AUT","VALLE DEL CAUCA","DAGUA","TAPAJE - DAGUA - DIRECTOS","3.610441667","-76.63785833","Precipitacion","mm"
"0021055501","0240","2018-04-18T18:25:00.000","0","SIMON CAMPOS  - AUT","HUILA","LA PLATA","ALTO MAGDALENA","2.345830556","-75.87805556","Precipitacion","mm"
"0026095320","0240","2017-08-17T21:30:00.000","0","EL VINCULO - AUT","VALLE DEL CAUCA","BUGA","CAUCA","3.834805556","-76.30000556","Precipitacion","mm"
"0024015110","0240","2015-05-12T12:30:00.000","0","LA BOYERA - AUT","CUNDINAMARCA","UBATÉ","SOGAMOSO","5.303805556","-73.85175","Precipitacion","mm"
"0023195502","0240","2015-09-06T22:00:00.000","0","APTO PALONEGRO","SANTANDER","LEBRIJA","MEDIO MAGDALENA","7.121","-73.185","Precipitacion","mm"
"0021202170","0240","2009-03-06T07:10:00.000","0","SIERRA MORENA - FOPAE","BOGOTA D.C.","BOGOTA, D.C","ALTO MAGDALENA","4.567","-74.167","Precipitacion","mm"
"0015067150","0240","2011-11-04T22:10:00.000","0","PTE GUAJIRO - En Siniestro","LA GUAJIRA","BARRANCAS","CARIBE - GUAJIRA","10.926","-72.804","Precipitacion","mm"
"0021205502","0240","2018-03-24T05:25:00.000","0","MISIONES  - AUT","CUNDINAMARCA","EL COLEGIO","ALTO MAGDALENA","4.544997222","-74.44055556","Precipitacion","mm"
"0015065190","0240","2017-06-17T05:10:00.000","0","MONGUI","LA GUAJIRA","RIOHACHA","CARIBE - GUAJIRA","11.227","-72.821","Precipitacion","mm"
"0016025501","0240","2018-05-24T18:25:00.000","1","CUCUTILLA  - AUT","NORTE DE SANTANDER","CUCUTILLA","CATATUMBO","7.519455556","-72.79790278","Precipitacion","mm"
"0016015120","0240","2013-07-19T19:10:00.000","0","UNIVERSIDAD DE PAMPLONA  - AUT","NORTE DE SANTANDER","PAMPLONA","CATATUMBO","7.360944444","-72.66605556","Precipitacion","mm"
"0026127040","0240","2018-10-20T03:00:00.000","0","CARTAGO","RISARALDA","PEREIRA","CAUCA","4.758","-75.899","Precipitacion","mm"
"0021237010","0240","2011-02-13T11:20:00.000","0","NARINO - AUT","CUNDINAMARCA","NARIÑO","ALTO MAGDALENA","4.387777778","-74.838375","Precipitacion","mm"
"0021185090","0240","2018-01-06T22:30:00.000","0","NATAIMA - AUT","TOLIMA","ESPINAL","ALTO MAGDALENA","4.188138889","-74.96047222","Precipitacion","mm"
"0021257120","0240","2019-04-11T14:10:00.000","0","PUENTE NEGRO  - AUT","TOLIMA","VILLAHERMOSA","ALTO MAGDALENA","4.940194444","-75.08980556","Precipitacion","mm"
"0013057010","0240","2012-02-19T03:20:00.000","0","NUEVA COLOMBIA","CÓRDOBA","MONTERÍA","SINÚ","8.499","-75.979","Precipitacion","mm"
"0053115501","0240","2018-11-22T06:35:00.000","0","DAGUA  - AUT","VALLE DEL CAUCA","DAGUA","TAPAJE - DAGUA - DIRECTOS","3.610441667","-76.63785833","Precipitacion","mm"
"0015015120","0240","2008-07-01T01:30:00.000","0","UNIVERSIDAD TECNOLOGICA  - AUT","MAGDALENA","SANTA MARTA","CARIBE - GUAJIRA","11.22305556","-74.18591667","Precipitacion","mm"
"0026127010","0240","2018-11-11T05:00:00.000","0","EL ALAMBRADO","VALLE DEL CAUCA","CAICEDONIA","CAUCA","4.41","-75.875","Precipitacion","mm"
"0024015110","0240","2007-10-27T19:40:00.000","0","LA BOYERA - AUT","CUNDINAMARCA","UBATÉ","SOGAMOSO","5.303805556","-73.85175","Precipitacion","mm"
"0021206960","0240","2014-01-18T01:50:00.000","0","IDEAM BOGOTA  - AUT","BOGOTA","BOGOTA, D.C","ALTO MAGDALENA","4.6","-74.06666667","Precipitacion","mm"
"0021202170","0240","2014-05-10T13:10:00.000","0","SIERRA MORENA - FOPAE","BOGOTA D.C.","BOGOTA, D.C","ALTO MAGDALENA","4.567","-74.167","Precipitacion","mm"
"0023065180","0240","2009-10-03T15:10:00.000","0","VILLETA - AUT","CUNDINAMARCA","VILLETA","MEDIO MAGDALENA","5.016861111","-74.47097222","Precipitacion","mm"
"2120000099","0240","2019-08-06T16:53:00.000","0","COLEGIO VEINTIUN ANGELES - AUT","BOGOTA D.C.","BOGOTA, D.C","ALTO MAGDALENA","4.749","-74.081","Precipitacion","mm"
"0023055502","0240","2018-01-24T06:50:00.000","0","VILLARAZ  - AUT","CALDAS","PENSILVANIA","MEDIO MAGDALENA","5.383333333","-75.06638889","Precipitacion","mm"
"0023125170","0240","2005-10-06T11:50:00.000","0","SAN CAYETANO - AUT","CUNDINAMARCA","SAN CAYETANO","MEDIO MAGDALENA","5.333333333","-74.016666667","Precipitacion","mm"
"0052057100","0240","2018-12-19T09:40:00.000","0","RUMICHACA - RIO GUAITARA","NARIÑO","IPIALES","PATÍA","0.814","-77.662","Precipitacion","mm"
"0021201200","0240","2011-12-09T12:10:00.000","0","ESC LA UNION - FOPAE","BOGOTA D.C.","BOGOTA, D.C","ALTO MAGDALENA","4.343","-74.184","Precipitacion","mm"
"0024035410","0240","2011-03-01T00:10:00.000","0","SOGAMOSO - AUT","BOYACÁ","SOGAMOSO","SOGAMOSO","5.753333333","-72.91115278","Precipitacion","mm"
"0015075501","0240","2016-02-21T20:00:00.000","0","AEROPUERTO PUERTO BOLIVAR  - AUT","LA GUAJIRA","URIBIA","CARIBE - GUAJIRA","12.22430556","-71.98288889","Precipitacion","mm"
"0052025501","0240","2017-11-03T11:20:00.000","0","LA VEGA  - AUT","CAUCA","LA VEGA","PATÍA","2.092941667","-76.81202778","Precipitacion","mm"
"0023105070","0240","2011-09-30T03:40:00.000","0","MACEO - AUT","ANTIOQUIA","YOLOMBÓ","MEDIO MAGDALENA","6.571638889","-74.79472222","Precipitacion","mm"
"0024035390","0240","2014-10-14T15:20:00.000","0","PARAMO ALMORZADERO  - AUT","SANTANDER","CERRITO","SOGAMOSO","6.945388889","-72.69633333","Precipitacion","mm"
"0023065503","0240","2017-05-17T15:35:00.000","0","EL MIRADOR  - AUT","CUNDINAMARCA","SASAIMA","MEDIO MAGDALENA","4.95","-74.4","Precipitacion","mm"
"0023055502","0240","2016-09-23T20:55:00.000","0.1","VILLARAZ  - AUT","CALDAS","PENSILVANIA","MEDIO MAGDALENA","5.383333333","-75.06638889","Precipitacion","mm"
"0021202230","0240","2010-03-23T21:10:00.000","0","UAN SEDE USME - FOPAE","BOGOTA D.C.","BOGOTA, D.C","ALTO MAGDALENA","4.467","-74.117","Precipitacion","mm"
"2120700038","0240","2019-05-22T03:38:00.000","0","SAN FRANCISCO - AUT","BOGOTA D.C.","BOGOTA, D.C","ALTO MAGDALENA","4.562","-74.149","Precipitacion","mm"
"0023065501","0240","2017-06-12T05:30:00.000","0","PACHO  - AUT","CUNDINAMARCA","PACHO","MEDIO MAGDALENA","5.129127778","-74.15769722","Precipitacion","mm"
"2120000108","0240","2018-11-19T04:04:00.000","0","IDIGER - AUT","BOGOTA D.C.","BOGOTA, D.C","ALTO MAGDALENA","4.675","-74.114","Precipitacion","mm"
"0023067060","0240","2016-02-08T11:50:00.000","0","TOBIA  - AUT","CUNDINAMARCA","NIMAIMA","MEDIO MAGDALENA","5.125305556","-74.44705556","Precipitacion","mm"
"0021202200","0240","2011-04-23T07:15:00.000","0","VITELMA","BOGOTA D.C.","BOGOTA, D.C","META","4.575","-74.072","Precipitacion","mm"
"0021137030","0240","2019-07-25T14:20:00.000","0","PUENTE CARRETERA  - AUT","HUILA","AIPE","ALTO MAGDALENA","3.263416667","-75.25097222","Precipitacion","mm"
"0024035370","0240","2016-01-23T05:00:00.000","0","EL ESPINO - AUT","BOYACÁ","EL ESPINO","SOGAMOSO","6.506722222","-72.45266667","Precipitacion","mm"
"0021205502","0240","2017-09-21T21:10:00.000","0","MISIONES  - AUT","CUNDINAMARCA","EL COLEGIO","ALTO MAGDALENA","4.544997222","-74.44055556","Precipitacion","mm"
"0021202230","0240","2010-09-01T23:35:00.000","0","UAN SEDE USME - FOPAE","BOGOTA D.C.","BOGOTA, D.C","ALTO MAGDALENA","4.467","-74.117","Precipitacion","mm"
"2621500070","0240","2019-04-13T13:40:00.000","0","ITUANGO - AUT","ANTIOQUIA","ITUANGO","CAUCA","7.175363889","-75.766358333","Precipitacion","mm"
"2120000102","0240","2019-02-21T09:55:00.000","0","COLEGIO CARLOS PIZARRO - AUT","BOGOTA D.C.","BOGOTA, D.C","ALTO MAGDALENA","4.635","-74.205","Precipitacion","mm"
"0026015040","0240","2019-05-02T16:00:00.000","0","ARRAYANALES - AUT","CAUCA","POPAYÁN","CAUCA","2.448041111","-76.43574694","Precipitacion","mm"
"0021206980","0240","2014-07-22T06:00:00.000","0","SANTA CRUZ DE SIECHA  - AUT","CUNDINAMARCA","GUASCA","ALTO MAGDALENA","4.784277778","-73.87080556","Precipitacion","mm"
"0012015100","0240","2015-04-05T16:50:00.000","0","PISTA INDIRA - AUT","ANTIOQUIA","TURBO","CARIBE - LITORAL","7.94075","-76.69616667","Precipitacion","mm"
"0021237010","0240","2010-04-04T10:10:00.000","0","NARINO - AUT","CUNDINAMARCA","NARIÑO","ALTO MAGDALENA","4.387777778","-74.838375","Precipitacion","mm"
"0054017040","0240","2017-10-11T05:50:00.000","0","TADO - AUT","CHOCO","TADÓ","SAN JUÁN","5.265111111","-76.56275","Precipitacion","mm"
"0048015040","0240","2017-11-24T02:10:00.000","0","PTO NARIÑO","AMAZONAS","PUERTO NARIÑO","AMAZONAS - DIRECTOS","-3.78","-70.363","Precipitacion","mm"
"0021206930","0240","2017-07-01T15:20:00.000","0","PARAMO GUERRERO  - AUT","CUNDINAMARCA","ZIPAQUIRÁ","ALTO MAGDALENA","5.086444444","-74.02216667","Precipitacion","mm"
"0023105070","0240","2007-07-09T13:00:00.000","0","MACEO - AUT","ANTIOQUIA","YOLOMBÓ","MEDIO MAGDALENA","6.571638889","-74.79472222","Precipitacion","mm"
"0054037050","0240","2019-01-27T05:40:00.000","0","PR CHOCO: SIPI","CHOCÓ","SIPÍ","<nil>","4.693","-76.74","Precipitacion","mm"
"0023050420","0240","2012-10-03T01:40:00.000","0","ARGELIA ANTIOQUIA - AUT","ANTIOQUIA","ARGELIA","MEDIO MAGDALENA","5.731138889","-75.13852778","Precipitacion","mm"
"2120700037","0240","2019-04-21T01:55:00.000","0","CASAS FISCALES ESCUELA DE ARTILLERÍA - AUT","BOGOTA D.C.","BOGOTA, D.C","ALTO MAGDALENA","4.556","-74.125","Precipitacion","mm"
"0022057010","0240","2011-12-15T01:50:00.000","0","PIEDRAS DE COBRE  - AUT","TOLIMA","SALDAÑA","SALDAÑA","3.908388889","-75.10327778","Precipitacion","mm"
"0011159010","0240","2008-07-14T14:30:00.000","0","CAPURGANA - TX GPRS","CHOCÓ","ACANDÍ","ATRATO - DARIÉN","8.616","-77.331","Precipitacion","mm"
"0013055040","0240","2012-07-04T15:50:00.000","0","INCODER - AUT","CORDOBA","MONTERÍA","SINÚ","8.746944444","-75.91388889","Precipitacion","mm"
"0023217080","0240","2019-02-24T13:50:00.000","0","GAMARRA - AUT","CESAR","GAMARRA","MEDIO MAGDALENA","8.284286111","-73.75338889","Precipitacion","mm"
"0035160010","0240","2018-07-14T04:30:00.000","0","PR TOTA: POTRERITO","BOYACÁ","AQUITANIA","META","5.478","-72.949","Precipitacion","mm"
"0028025130","0240","2017-10-23T03:00:00.000","0","LA LOMA CARBONES - AUT","CESAR","EL PASO","CESAR","9.640611111","-73.52394444","Precipitacion","mm"
"0051025090","0240","2017-07-17T17:20:00.000","0","GRANJA MIRA","NARINO","TUMACO","MIRA","1.55","-78.696","Precipitacion","mm"
"0017035010","0240","2018-02-12T03:30:00.000","0","SERRANILLA","SAN ANDRÉS PROVIDENCIA","SAN ANDRÉS","ISLAS CARIBE","15.797","-79.852","Precipitacion","mm"
"0026145505","0240","2018-06-11T06:15:00.000","0","LA FLORESTA  - AUT","CALDAS","BELALCAZAR","CAUCA","4.979219444","-75.83555556","Precipitacion","mm"
"0023065503","0240","2018-05-23T17:40:00.000","0","EL MIRADOR  - AUT","CUNDINAMARCA","SASAIMA","MEDIO MAGDALENA","4.95","-74.4","Precipitacion","mm"
"0023035030","0240","2011-06-27T17:20:00.000","0","BASE PALANQUERO  - AUT","CUNDINAMARCA","PUERTO SALGAR","MEDIO MAGDALENA","5.492861111","-74.658","Precipitacion","mm"
"0021206930","0240","2006-07-23T08:20:00.000","0","PARAMO GUERRERO  - AUT","CUNDINAMARCA","ZIPAQUIRÁ","ALTO MAGDALENA","5.086444444","-74.02216667","Precipitacion","mm"
"0024017600","0240","2019-07-24T00:10:00.000","0","MONIQUIRA  - AUT","BOYACÁ","MONIQUIRÁ","SOGAMOSO","5.878138889","-73.57025","Precipitacion","mm"
"0021045501","0240","2018-07-22T19:05:00.000","0","OPORAPA  - AUT","HUILA","OPORAPA","ALTO MAGDALENA","2.041941667","-76.01191667","Precipitacion","mm"
"0021215180","0240","2007-11-02T01:20:00.000","0","BATALLON ROOKE  - AUT","TOLIMA","IBAGUÉ","ALTO MAGDALENA","4.418388889","-75.24866667","Precipitacion","mm"
"0021257120","0240","2012-04-08T20:20:00.000","0","PUENTE NEGRO  - AUT","TOLIMA","VILLAHERMOSA","ALTO MAGDALENA","4.940194444","-75.08980556","Precipitacion","mm"
"0016055501","0240","2019-07-18T11:35:00.000","0","GABRIEL MARIA  - AUT","NORTE DE SANTANDER","CONVENCIÓN","CATATUMBO","8.412497222","-73.33944167","Precipitacion","mm"
"0026165502","0240","2019-06-01T09:30:00.000","0","JARDIN  - AUT","ANTIOQUIA","JARDÍN","CAUCA","5.6","-75.84972222","Precipitacion","mm"
"0021195170","0240","2005-11-07T10:40:00.000","0","PAQUILO - AUT","CUNDINAMARCA","CABRERA","ALTO MAGDALENA","3.993611111","-74.39805556","Precipitacion","mm"
"0024025090","0240","2012-09-28T15:00:00.000","0","MOGOTES - AUT","SANTANDER","MOGOTES","SOGAMOSO","6.47","-72.96888889","Precipitacion","mm"
"0048015010","0240","2018-07-15T23:20:00.000","0","APTO VASQUEZ COBO TX GPRS/GOES","AMAZONAS","LETICIA","<nil>","-4.194","-69.941","Precipitacion","mm"
"0021115010","0240","2009-04-04T17:20:00.000","0","DESIERTO TATACOA","HUILA","VILLAVIEJA","ALTO MAGDALENA","3.234","-75.168","Precipitacion","mm"
"0021185501","0240","2017-07-05T05:15:00.000","0","ROVIRA  - AUT","TOLIMA","ROVIRA","ALTO MAGDALENA","4.266666667","-75.28305556","Precipitacion","mm"
"0021202250","0240","2015-02-19T20:30:00.000","0","DOÑA JUANA - FOPAE","BOGOTA D.C.","BOGOTA, D.C","ALTO MAGDALENA","4.5","-74.133","Precipitacion","mm"
"0015015120","0240","2015-04-14T13:36:00.000","0","UNIVERSIDAD TECNOLOGICA  - AUT","MAGDALENA","SANTA MARTA","CARIBE - GUAJIRA","11.22305556","-74.18591667","Precipitacion","mm"
"0052045080","0240","2017-05-25T00:40:00.000","0","UNIVERSIDAD DE NARINO  - AUT","NARIÑO","PASTO","PATÍA","1.225111111","-77.28338889","Precipitacion","mm"
"0024035370","0240","2016-06-11T09:30:00.000","0","EL ESPINO - AUT","BOYACÁ","EL ESPINO","SOGAMOSO","6.506722222","-72.45266667","Precipitacion","mm"
"0011159010","0240","2007-10-15T02:00:00.000","0","CAPURGANA - TX GPRS","CHOCÓ","ACANDÍ","ATRATO - DARIÉN","8.616","-77.331","Precipitacion","mm"
"2120000109","0240","2019-06-01T02:40:00.000","0","COLEGIO RODOLFO LLINAS - AUT","BOGOTA D.C.","BOGOTA, D.C","ALTO MAGDALENA","4.72","-74.108","Precipitacion","mm"
"0048015010","0240","2017-05-23T21:10:00.000","0","APTO VASQUEZ COBO TX GPRS/GOES","AMAZONAS","LETICIA","<nil>","-4.194","-69.941","Precipitacion","mm"
"0021215160","0240","2010-12-12T16:40:00.000","0","CERROS NOROCCIDENTALES  - AUT","TOLIMA","IBAGUÉ","ALTO MAGDALENA","4.470361111","-75.24386111","Precipitacion","mm"
"0023180070","0240","2017-12-10T21:10:00.000","1.4","SABANA DE TORRES","SANTANDER","SABANA DE TORRES","MEDIO MAGDALENA","7.39","-73.48944444","Precipitacion","mm"
"0021015070","0240","2007-09-12T01:20:00.000","0","LOS GUACHAROS  - AUT","HUILA","PALESTINA","ALTO MAGDALENA","1.675833","-76.106841","Precipitacion","mm"
"0025025350","0240","2019-02-14T04:30:00.000","0","PUERTA ROJA - AUT","SUCRE","SINCELEJO","BAJO MAGDALENA- CAUCA -SAN JORGE","9.316388889","-75.3875","Precipitacion","mm"
"0023105070","0240","2017-12-10T04:20:00.000","0","MACEO - AUT","ANTIOQUIA","YOLOMBÓ","MEDIO MAGDALENA","6.571638889","-74.79472222","Precipitacion","mm"
"0011159010","0240","2014-02-24T08:00:00.000","0","CAPURGANA - TX GPRS","CHOCÓ","ACANDÍ","ATRATO - DARIÉN","8.616","-77.331","Precipitacion","mm"
"0024035390","0240","2011-08-02T19:10:00.000","0.8","PARAMO ALMORZADERO  - AUT","SANTANDER","CERRITO","SOGAMOSO","6.945388889","-72.69633333","Precipitacion","mm"
"0021137050","0240","2014-03-25T14:40:00.000","0","RIO ANGOSTURA  - AUT","TOLIMA","NATAGAIMA","ALTO MAGDALENA","3.443194444","-75.11880556","Precipitacion","mm"
"0025025350","0240","2017-08-31T13:00:00.000","0","PUERTA ROJA - AUT","SUCRE","SINCELEJO","BAJO MAGDALENA- CAUCA -SAN JORGE","9.316388889","-75.3875","Precipitacion","mm"
"0052055501","0240","2018-02-03T21:45:00.000","0","OSPINA PEREZ  - AUT","NARIÑO","CONSACÁ","PATÍA","1.254722222","-77.48777778","Precipitacion","mm"
"0052035040","0240","2018-05-25T14:20:00.000","0","VIENTO LIBRE - AUT","NARIÑO","TAMINANGO","PATÍA","1.6185","-77.34361111","Precipitacion","mm"
"0054015020","0240","2018-12-06T05:10:00.000","0","PR CHOCO: TADO","CHOCÓ","TADÓ","SAN JUÁN","5.27","-76.552","Precipitacion","mm"
"0021015050","0240","2015-09-28T06:40:00.000","0","PURACE  - AUT","HUILA","SAN AGUSTÍN","ALTO MAGDALENA","1.925916667","-76.42755556","Precipitacion","mm"
